{
  "type": "FeatureCollection",
  "name": "airports",
  "crs": { "type": "name", "properties": { "name": "urn:ogc:def:crs:OGC:1.3:CRS84" } },
  "features": [
    {
      "type": "Feature",
      "properties": {
        "Layer": "AEROPORT_A_TERRE-NEUVE_ET_LABRADOR",
        "Id": "CCV4",
        "Station": "BELL ISLAND"
      },
      "geometry": { "type": "Point", "coordinates": [-52.983333333333299, 47.633333333333297, 0.0] }
    },
    {
      "type": "Feature",
      "properties": {
        "Layer": "AEROPORT_A_TERRE-NEUVE_ET_LABRADOR",
        "Id": "CCE4",
        "Station": "BLACK TICKLE"
      },
      "geometry": { "type": "Point", "coordinates": [-55.7875, 53.47, 0.0] }
    },
    {
      "type": "Feature",
      "properties": {
        "Layer": "AEROPORT_A_TERRE-NEUVE_ET_LABRADOR",
        "Id": "CBC9",
        "Station": "BURGEO (CALDER HEALTH CARE CORP) (Heli)"
      },
      "geometry": { "type": "Point", "coordinates": [-57.623333333333299, 47.613055555555597, 0.0] }
    },
    {
      "type": "Feature",
      "properties": {
        "Layer": "AEROPORT_A_TERRE-NEUVE_ET_LABRADOR",
        "Id": "CYCA",
        "Station": "CARTWRIGHT"
      },
      "geometry": { "type": "Point", "coordinates": [-57.041944444444397, 53.682777777777801, 0.0] }
    },
    {
      "type": "Feature",
      "properties": {
        "Layer": "AEROPORT_A_TERRE-NEUVE_ET_LABRADOR",
        "Id": "CCH4",
        "Station": "CHARLOTTETOWN"
      },
      "geometry": { "type": "Point", "coordinates": [-56.1125, 52.765833333333298, 0.0] }
    },
    {
      "type": "Feature",
      "properties": {
        "Layer": "AEROPORT_A_TERRE-NEUVE_ET_LABRADOR",
        "Id": "CZUM",
        "Station": "CHURCHILL FALLS"
      },
      "geometry": { "type": "Point", "coordinates": [-64.106388888888901, 53.5619444444444, 0.0] }
    },
    {
      "type": "Feature",
      "properties": {
        "Layer": "AEROPORT_A_TERRE-NEUVE_ET_LABRADOR",
        "Id": "CCZ3",
        "Station": "CLARENVILLE"
      },
      "geometry": { "type": "Point", "coordinates": [-53.923888888888897, 48.274722222222202, 0.0] }
    },
    {
      "type": "Feature",
      "properties": {
        "Layer": "AEROPORT_A_TERRE-NEUVE_ET_LABRADOR",
        "Id": "CYDF",
        "Station": "DEER LAKE"
      },
      "geometry": { "type": "Point", "coordinates": [-57.394444444444403, 49.209166666666697, 0.0] }
    },
    {
      "type": "Feature",
      "properties": {
        "Layer": "AEROPORT_A_TERRE-NEUVE_ET_LABRADOR",
        "Id": "CCP2",
        "Station": "EXPLOITS VALLEY (BOTWOOD)"
      },
      "geometry": { "type": "Point", "coordinates": [-55.448055555555598, 49.0561111111111, 0.0] }
    },
    {
      "type": "Feature",
      "properties": {
        "Layer": "AEROPORT_A_TERRE-NEUVE_ET_LABRADOR",
        "Id": "CDY3",
        "Station": "FOGO"
      },
      "geometry": { "type": "Point", "coordinates": [-54.2375, 49.6575, 0.0] }
    },
    {
      "type": "Feature",
      "properties": {
        "Layer": "AEROPORT_A_TERRE-NEUVE_ET_LABRADOR",
        "Id": "CYQX",
        "Station": "GANDER INTL"
      },
      "geometry": { "type": "Point", "coordinates": [-54.568055555555603, 48.9369444444444, 0.0] }
    },
    {
      "type": "Feature",
      "properties": {
        "Layer": "AEROPORT_A_TERRE-NEUVE_ET_LABRADOR",
        "Id": "CGH2",
        "Station": "GANDER (JAMES PATON MEM REGIONAL HEALTH CENTRE) (Heli)"
      },
      "geometry": { "type": "Point", "coordinates": [-54.627222222222201, 48.955277777777802, 0.0] }
    },
    {
      "type": "Feature",
      "properties": {
        "Layer": "AEROPORT_A_TERRE-NEUVE_ET_LABRADOR",
        "Id": "CYYR",
        "Station": "GOOSE BAY"
      },
      "geometry": { "type": "Point", "coordinates": [-60.425833333333301, 53.319166666666703, 0.0] }
    },
    {
      "type": "Feature",
      "properties": {
        "Layer": "AEROPORT_A_TERRE-NEUVE_ET_LABRADOR",
        "Id": "CFW8",
        "Station": "GRAND FALLS-WINDSOR (Heli)"
      },
      "geometry": { "type": "Point", "coordinates": [-55.647222222222197, 48.924722222222201, 0.0] }
    },
    {
      "type": "Feature",
      "properties": {
        "Layer": "AEROPORT_A_TERRE-NEUVE_ET_LABRADOR",
        "Id": "CHG2",
        "Station": "HARBOUR GRACE"
      },
      "geometry": { "type": "Point", "coordinates": [-53.253888888888902, 47.685555555555602, 0.0] }
    },
    {
      "type": "Feature",
      "properties": {
        "Layer": "AEROPORT_A_TERRE-NEUVE_ET_LABRADOR",
        "Id": "CYHO",
        "Station": "HOPEDALE"
      },
      "geometry": { "type": "Point", "coordinates": [-60.228055555555599, 55.448888888888902, 0.0] }
    },
    {
      "type": "Feature",
      "properties": {
        "Layer": "AEROPORT_A_TERRE-NEUVE_ET_LABRADOR",
        "Id": "CCX2",
        "Station": "LONG POND (Heli)"
      },
      "geometry": { "type": "Point", "coordinates": [-52.980833333333301, 47.516111111111101, 0.0] }
    },
    {
      "type": "Feature",
      "properties": {
        "Layer": "AEROPORT_A_TERRE-NEUVE_ET_LABRADOR",
        "Id": "CYFT",
        "Station": "MAKKOVIK"
      },
      "geometry": { "type": "Point", "coordinates": [-59.1875, 55.077222222222197, 0.0] }
    },
    {
      "type": "Feature",
      "properties": {
        "Layer": "AEROPORT_A_TERRE-NEUVE_ET_LABRADOR",
        "Id": "CYMH",
        "Station": "MARY'S HARBOUR"
      },
      "geometry": { "type": "Point", "coordinates": [-55.8477777777778, 52.302777777777798, 0.0] }
    },
    {
      "type": "Feature",
      "properties": {
        "Layer": "AEROPORT_A_TERRE-NEUVE_ET_LABRADOR",
        "Id": "CYDP",
        "Station": "NAIN"
      },
      "geometry": { "type": "Point", "coordinates": [-61.682222222222201, 56.550555555555597, 0.0] }
    },
    {
      "type": "Feature",
      "properties": {
        "Layer": "AEROPORT_A_TERRE-NEUVE_ET_LABRADOR",
        "Id": "CNH2",
        "Station": "NATUASHISH"
      },
      "geometry": { "type": "Point", "coordinates": [-61.184444444444402, 55.913888888888899, 0.0] }
    },
    {
      "type": "Feature",
      "properties": {
        "Layer": "AEROPORT_A_TERRE-NEUVE_ET_LABRADOR",
        "Id": "CCM4",
        "Station": "PORT AU CHOIX"
      },
      "geometry": { "type": "Point", "coordinates": [-57.331388888888902, 50.688888888888897, 0.0] }
    },
    {
      "type": "Feature",
      "properties": {
        "Layer": "AEROPORT_A_TERRE-NEUVE_ET_LABRADOR",
        "Id": "CCP4",
        "Station": "PORT HOPE SIMPSON"
      },
      "geometry": { "type": "Point", "coordinates": [-56.2852777777778, 52.528055555555603, 0.0] }
    },
    {
      "type": "Feature",
      "properties": {
        "Layer": "AEROPORT_A_TERRE-NEUVE_ET_LABRADOR",
        "Id": "CCD4",
        "Station": "POSTVILLE"
      },
      "geometry": { "type": "Point", "coordinates": [-59.7852777777778, 54.9102777777778, 0.0] }
    },
    {
      "type": "Feature",
      "properties": {
        "Layer": "AEROPORT_A_TERRE-NEUVE_ET_LABRADOR",
        "Id": "CCZ2",
        "Station": "RIGOLET"
      },
      "geometry": { "type": "Point", "coordinates": [-58.4577777777778, 54.1794444444444, 0.0] }
    },
    {
      "type": "Feature",
      "properties": {
        "Layer": "AEROPORT_A_TERRE-NEUVE_ET_LABRADOR",
        "Id": "CDA5",
        "Station": "ST. ANDREWS (CODROY VALLEY)"
      },
      "geometry": { "type": "Point", "coordinates": [-59.3125, 47.775833333333303, 0.0] }
    },
    {
      "type": "Feature",
      "properties": {
        "Layer": "AEROPORT_A_TERRE-NEUVE_ET_LABRADOR",
        "Id": "CYAY",
        "Station": "ST. ANTHONY"
      },
      "geometry": { "type": "Point", "coordinates": [-56.083055555555603, 51.391944444444398, 0.0] }
    },
    {
      "type": "Feature",
      "properties": {
        "Layer": "AEROPORT_A_TERRE-NEUVE_ET_LABRADOR",
        "Id": "CYYT",
        "Station": "ST. JOHN'S INTL"
      },
      "geometry": { "type": "Point", "coordinates": [-52.7525, 47.6186111111111, 0.0] }
    },
    {
      "type": "Feature",
      "properties": {
        "Layer": "AEROPORT_A_TERRE-NEUVE_ET_LABRADOR",
        "Id": "CDC2",
        "Station": "ST. JOHN'S (UNIVERSAL) (Heli)"
      },
      "geometry": { "type": "Point", "coordinates": [-52.726944444444399, 47.608333333333299, 0.0] }
    },
    {
      "type": "Feature",
      "properties": {
        "Layer": "AEROPORT_A_TERRE-NEUVE_ET_LABRADOR",
        "Id": "CCK4",
        "Station": "ST. LEWIS (FOX HARBOUR)"
      },
      "geometry": { "type": "Point", "coordinates": [-55.673888888888897, 52.372777777777799, 0.0] }
    },
    {
      "type": "Feature",
      "properties": {
        "Layer": "AEROPORT_A_TERRE-NEUVE_ET_LABRADOR",
        "Id": "CCD2",
        "Station": "SPRINGDALE"
      },
      "geometry": { "type": "Point", "coordinates": [-56.178055555555602, 49.478888888888903, 0.0] }
    },
    {
      "type": "Feature",
      "properties": {
        "Layer": "AEROPORT_A_TERRE-NEUVE_ET_LABRADOR",
        "Id": "CYJT",
        "Station": "STEPHENVILLE"
      },
      "geometry": { "type": "Point", "coordinates": [-58.55, 48.541388888888903, 0.0] }
    },
    {
      "type": "Feature",
      "properties": {
        "Layer": "AEROPORT_A_TERRE-NEUVE_ET_LABRADOR",
        "Id": "CVB2",
        "Station": "VOISEY'S BAY"
      },
      "geometry": { "type": "Point", "coordinates": [-62.088055555555599, 56.344722222222202, 0.0] }
    },
    {
      "type": "Feature",
      "properties": {
        "Layer": "AEROPORT_A_TERRE-NEUVE_ET_LABRADOR",
        "Id": "CYWK",
        "Station": "WABUSH"
      },
      "geometry": { "type": "Point", "coordinates": [-66.864722222222198, 52.922777777777803, 0.0] }
    },
    {
      "type": "Feature",
      "properties": {
        "Layer": "AEROPORT_A_TERRE-NEUVE_ET_LABRADOR",
        "Id": "CCA6",
        "Station": "WILLIAMS HARBOUR"
      },
      "geometry": { "type": "Point", "coordinates": [-55.785, 52.5675, 0.0] }
    },
    {
      "type": "Feature",
      "properties": {
        "Layer": "AEROPORT_A_TERRE-NEUVE_ET_LABRADOR",
        "Id": "CCC2",
        "Station": "WINTERLAND"
      },
      "geometry": { "type": "Point", "coordinates": [-55.329166666666701, 47.136944444444403, 0.0] }
    },
    {
      "type": "Feature",
      "properties": {
        "Layer": "AEROPORT_AU_NOUVEAU-BRUNSWICK",
        "Id": "CZBF",
        "Station": "BATHURST"
      },
      "geometry": { "type": "Point", "coordinates": [-65.738888888888894, 47.629722222222199, 0.0] }
    },
    {
      "type": "Feature",
      "properties": {
        "Layer": "AEROPORT_AU_NOUVEAU-BRUNSWICK",
        "Id": "CCJ3",
        "Station": "BOSTON BROOK"
      },
      "geometry": { "type": "Point", "coordinates": [-67.624722222222204, 47.448611111111099, 0.0] }
    },
    {
      "type": "Feature",
      "properties": {
        "Layer": "AEROPORT_AU_NOUVEAU-BRUNSWICK",
        "Id": "CDA6",
        "Station": "BRISTOL"
      },
      "geometry": { "type": "Point", "coordinates": [-67.564722222222201, 46.4594444444445, 0.0] }
    },
    {
      "type": "Feature",
      "properties": {
        "Layer": "AEROPORT_AU_NOUVEAU-BRUNSWICK",
        "Id": "CCX3",
        "Station": "BROCKWAY"
      },
      "geometry": { "type": "Point", "coordinates": [-67.1, 45.566666666666698, 0.0] }
    },
    {
      "type": "Feature",
      "properties": {
        "Layer": "AEROPORT_AU_NOUVEAU-BRUNSWICK",
        "Id": "CDT5",
        "Station": "BUCTOUCHE"
      },
      "geometry": { "type": "Point", "coordinates": [-64.693888888888907, 46.509444444444398, 0.0] }
    },
    {
      "type": "Feature",
      "properties": {
        "Layer": "AEROPORT_AU_NOUVEAU-BRUNSWICK",
        "Id": "CCRH",
        "Station": "CAMPBELLTON (REGIONAL HOSP) (Heli)"
      },
      "geometry": { "type": "Point", "coordinates": [-66.665277777777803, 47.9941666666667, 0.0] }
    },
    {
      "type": "Feature",
      "properties": { "Layer": "AEROPORT_AU_NOUVEAU-BRUNSWICK", "Id": "CYCL", "Station": "CHARLO" },
      "geometry": { "type": "Point", "coordinates": [-66.330277777777795, 47.990833333333299, 0.0] }
    },
    {
      "type": "Feature",
      "properties": {
        "Layer": "AEROPORT_AU_NOUVEAU-BRUNSWICK",
        "Id": "CCS4",
        "Station": "CHIPMAN"
      },
      "geometry": { "type": "Point", "coordinates": [-65.904166666666697, 46.148611111111101, 0.0] }
    },
    {
      "type": "Feature",
      "properties": {
        "Layer": "AEROPORT_AU_NOUVEAU-BRUNSWICK",
        "Id": "CDJ4",
        "Station": "CLEARWATER"
      },
      "geometry": { "type": "Point", "coordinates": [-66.828333333333305, 46.713333333333303, 0.0] }
    },
    {
      "type": "Feature",
      "properties": {
        "Layer": "AEROPORT_AU_NOUVEAU-BRUNSWICK",
        "Id": "CDU6",
        "Station": "DOAKTOWN"
      },
      "geometry": { "type": "Point", "coordinates": [-66.093888888888898, 46.5525, 0.0] }
    },
    {
      "type": "Feature",
      "properties": {
        "Layer": "AEROPORT_AU_NOUVEAU-BRUNSWICK",
        "Id": "CDV2",
        "Station": "DOWNS GULCH"
      },
      "geometry": { "type": "Point", "coordinates": [-67.426111111111098, 47.753611111111098, 0.0] }
    },
    {
      "type": "Feature",
      "properties": {
        "Layer": "AEROPORT_AU_NOUVEAU-BRUNSWICK",
        "Id": "CYES",
        "Station": "EDMUNDSTON"
      },
      "geometry": { "type": "Point", "coordinates": [-68.481944444444494, 47.490555555555602, 0.0] }
    },
    {
      "type": "Feature",
      "properties": {
        "Layer": "AEROPORT_AU_NOUVEAU-BRUNSWICK",
        "Id": "CCY5",
        "Station": "EDMUNDSTON (REGIONAL HOSP) (Heli)"
      },
      "geometry": { "type": "Point", "coordinates": [-68.311944444444407, 47.376388888888897, 0.0] }
    },
    {
      "type": "Feature",
      "properties": {
        "Layer": "AEROPORT_AU_NOUVEAU-BRUNSWICK",
        "Id": "CCR3",
        "Station": "FLORENCEVILLE"
      },
      "geometry": { "type": "Point", "coordinates": [-67.628055555555505, 46.426111111111098, 0.0] }
    },
    {
      "type": "Feature",
      "properties": {
        "Layer": "AEROPORT_AU_NOUVEAU-BRUNSWICK",
        "Id": "CYFC",
        "Station": "FREDERICTON INTL"
      },
      "geometry": { "type": "Point", "coordinates": [-66.537222222222198, 45.868888888888897, 0.0] }
    },
    {
      "type": "Feature",
      "properties": {
        "Layer": "AEROPORT_AU_NOUVEAU-BRUNSWICK",
        "Id": "CRC2",
        "Station": "FREDERICTON (RCMP) (Heli)"
      },
      "geometry": { "type": "Point", "coordinates": [-66.6666666666667, 45.9316666666667, 0.0] }
    },
    {
      "type": "Feature",
      "properties": {
        "Layer": "AEROPORT_AU_NOUVEAU-BRUNSWICK",
        "Id": "CYCX",
        "Station": "GAGETOWN (Heli)"
      },
      "geometry": { "type": "Point", "coordinates": [-66.433333333333294, 45.8333333333333, 0.0] }
    },
    {
      "type": "Feature",
      "properties": {
        "Layer": "AEROPORT_AU_NOUVEAU-BRUNSWICK",
        "Id": "CCK3",
        "Station": "GRAND FALLS"
      },
      "geometry": { "type": "Point", "coordinates": [-67.685, 47.075, 0.0] }
    },
    {
      "type": "Feature",
      "properties": {
        "Layer": "AEROPORT_AU_NOUVEAU-BRUNSWICK",
        "Id": "CCN2",
        "Station": "GRAND MANAN"
      },
      "geometry": { "type": "Point", "coordinates": [-66.796388888888899, 44.713333333333303, 0.0] }
    },
    {
      "type": "Feature",
      "properties": {
        "Layer": "AEROPORT_AU_NOUVEAU-BRUNSWICK",
        "Id": "CCS5",
        "Station": "HAVELOCK"
      },
      "geometry": { "type": "Point", "coordinates": [-65.301944444444402, 45.986388888888897, 0.0] }
    },
    {
      "type": "Feature",
      "properties": {
        "Layer": "AEROPORT_AU_NOUVEAU-BRUNSWICK",
        "Id": "CCE3",
        "Station": "JUNIPER"
      },
      "geometry": { "type": "Point", "coordinates": [-67.168333333333294, 46.562777777777796, 0.0] }
    },
    {
      "type": "Feature",
      "properties": {
        "Layer": "AEROPORT_AU_NOUVEAU-BRUNSWICK",
        "Id": "CYCH",
        "Station": "MIRAMICHI"
      },
      "geometry": { "type": "Point", "coordinates": [-65.449166666666699, 47.007777777777797, 0.0] }
    },
    {
      "type": "Feature",
      "properties": {
        "Layer": "AEROPORT_AU_NOUVEAU-BRUNSWICK",
        "Id": "CYQM",
        "Station": "MONCTON/GREATER MONCTON INTL"
      },
      "geometry": { "type": "Point", "coordinates": [-64.678611111111096, 46.112222222222201, 0.0] }
    },
    {
      "type": "Feature",
      "properties": {
        "Layer": "AEROPORT_AU_NOUVEAU-BRUNSWICK",
        "Id": "CCG4",
        "Station": "MONCTON/McEWEN"
      },
      "geometry": { "type": "Point", "coordinates": [-64.768611111111099, 46.153888888888901, 0.0] }
    },
    {
      "type": "Feature",
      "properties": {
        "Layer": "AEROPORT_AU_NOUVEAU-BRUNSWICK",
        "Id": "CDB5",
        "Station": "MONCTON/SALISBURY (Heli)"
      },
      "geometry": { "type": "Point", "coordinates": [-65.0625, 46.049444444444397, 0.0] }
    },
    {
      "type": "Feature",
      "properties": {
        "Layer": "AEROPORT_AU_NOUVEAU-BRUNSWICK",
        "Id": "CDA4",
        "Station": "POKEMOUCHE"
      },
      "geometry": { "type": "Point", "coordinates": [-64.8825, 47.716388888888901, 0.0] }
    },
    {
      "type": "Feature",
      "properties": {
        "Layer": "AEROPORT_AU_NOUVEAU-BRUNSWICK",
        "Id": "CYSJ",
        "Station": "SAINT JOHN"
      },
      "geometry": { "type": "Point", "coordinates": [-65.89, 45.316111111111098, 0.0] }
    },
    {
      "type": "Feature",
      "properties": {
        "Layer": "AEROPORT_AU_NOUVEAU-BRUNSWICK",
        "Id": "CSN6",
        "Station": "SAINT JOHN (SAINT JOHN REGIONAL HOSPITAL) (Heli)"
      },
      "geometry": { "type": "Point", "coordinates": [-66.088055555555599, 45.302222222222198, 0.0] }
    },
    {
      "type": "Feature",
      "properties": {
        "Layer": "AEROPORT_AU_NOUVEAU-BRUNSWICK",
        "Id": "CYSL",
        "Station": "ST. LEONARD"
      },
      "geometry": { "type": "Point", "coordinates": [-67.834722222222197, 47.1575, 0.0] }
    },
    {
      "type": "Feature",
      "properties": {
        "Layer": "AEROPORT_AU_NOUVEAU-BRUNSWICK",
        "Id": "CDC4",
        "Station": "ST-QUENTIN"
      },
      "geometry": { "type": "Point", "coordinates": [-67.421111111111102, 47.521111111111097, 0.0] }
    },
    {
      "type": "Feature",
      "properties": {
        "Layer": "AEROPORT_AU_NOUVEAU-BRUNSWICK",
        "Id": "CCS3",
        "Station": "ST. STEPHEN"
      },
      "geometry": { "type": "Point", "coordinates": [-67.250555555555593, 45.2075, 0.0] }
    },
    {
      "type": "Feature",
      "properties": {
        "Layer": "AEROPORT_AU_NOUVEAU-BRUNSWICK",
        "Id": "CCF9",
        "Station": "SCOTTSFIELD AIRPARK"
      },
      "geometry": { "type": "Point", "coordinates": [-67.095277777777795, 45.960277777777797, 0.0] }
    },
    {
      "type": "Feature",
      "properties": {
        "Layer": "AEROPORT_AU_NOUVEAU-BRUNSWICK",
        "Id": "CCM3",
        "Station": "SEVOGLE"
      },
      "geometry": { "type": "Point", "coordinates": [-66.15, 47.183333333333302, 0.0] }
    },
    {
      "type": "Feature",
      "properties": {
        "Layer": "AEROPORT_AU_NOUVEAU-BRUNSWICK",
        "Id": "CSB5",
        "Station": "SHEDIAC BRIDGE"
      },
      "geometry": { "type": "Point", "coordinates": [-64.576666666666696, 46.254722222222199, 0.0] }
    },
    {
      "type": "Feature",
      "properties": { "Layer": "AEROPORT_AU_NOUVEAU-BRUNSWICK", "Id": "CCY3", "Station": "SUSSEX" },
      "geometry": { "type": "Point", "coordinates": [-65.541944444444397, 45.686388888888899, 0.0] }
    },
    {
      "type": "Feature",
      "properties": {
        "Layer": "AEROPORT_AU_NOUVEAU-BRUNSWICK",
        "Id": "CCH2",
        "Station": "UPPER KENT"
      },
      "geometry": { "type": "Point", "coordinates": [-67.719166666666695, 46.5875, 0.0] }
    },
    {
      "type": "Feature",
      "properties": {
        "Layer": "AEROPORT_AU_NOUVEAU-BRUNSWICK",
        "Id": "CCG3",
        "Station": "WEYMAN AIRPARK"
      },
      "geometry": { "type": "Point", "coordinates": [-66.858888888888899, 46.0375, 0.0] }
    },
    {
      "type": "Feature",
      "properties": {
        "Layer": "AEROPORT_AU_NOUVEAU-BRUNSWICK",
        "Id": "CCD3",
        "Station": "WOODSTOCK"
      },
      "geometry": { "type": "Point", "coordinates": [-67.55, 46.15, 0.0] }
    },
    {
      "type": "Feature",
      "properties": { "Layer": "AEROPORT_AU_QUEBEC", "Id": "CYKO", "Station": "AKULIVIK" },
      "geometry": { "type": "Point", "coordinates": [-78.148611111111094, 60.818611111111103, 0.0] }
    },
    {
      "type": "Feature",
      "properties": { "Layer": "AEROPORT_AU_QUEBEC", "Id": "CYTF", "Station": "ALMA" },
      "geometry": { "type": "Point", "coordinates": [-71.641388888888898, 48.508611111111101, 0.0] }
    },
    {
      "type": "Feature",
      "properties": { "Layer": "AEROPORT_AU_QUEBEC", "Id": "CYEY", "Station": "AMOS/MAGNY" },
      "geometry": { "type": "Point", "coordinates": [-78.249166666666696, 48.565, 0.0] }
    },
    {
      "type": "Feature",
      "properties": { "Layer": "AEROPORT_AU_QUEBEC", "Id": "CYLA", "Station": "AUPALUK" },
      "geometry": { "type": "Point", "coordinates": [-69.599722222222198, 59.296666666666702, 0.0] }
    },
    {
      "type": "Feature",
      "properties": { "Layer": "AEROPORT_AU_QUEBEC", "Id": "CYBG", "Station": "BAGOTVILLE" },
      "geometry": { "type": "Point", "coordinates": [-70.996388888888902, 48.330555555555598, 0.0] }
    },
    {
      "type": "Feature",
      "properties": { "Layer": "AEROPORT_AU_QUEBEC", "Id": "CYBC", "Station": "BAIE-COMEAU" },
      "geometry": { "type": "Point", "coordinates": [-68.204444444444405, 49.1325, 0.0] }
    },
    {
      "type": "Feature",
      "properties": {
        "Layer": "AEROPORT_AU_QUEBEC",
        "Id": "CSN9",
        "Station": "BAIE-COMEAU/HÉLI-MANICOUAGAN (heli)"
      },
      "geometry": { "type": "Point", "coordinates": [-68.285277777777793, 49.198888888888902, 0.0] }
    },
    {
      "type": "Feature",
      "properties": {
        "Layer": "AEROPORT_AU_QUEBEC",
        "Id": "CSL9",
        "Station": "BAIE-COMEAU (manic 1)"
      },
      "geometry": { "type": "Point", "coordinates": [-68.3625, 49.184444444444402, 0.0] }
    },
    {
      "type": "Feature",
      "properties": {
        "Layer": "AEROPORT_AU_QUEBEC",
        "Id": "CTD4",
        "Station": "BAIE-ST-PAUL  (heli)"
      },
      "geometry": { "type": "Point", "coordinates": [-70.516388888888898, 47.4433333333333, 0.0] }
    },
    {
      "type": "Feature",
      "properties": { "Layer": "AEROPORT_AU_QUEBEC", "Id": "CSV3", "Station": "BÉCANCOUR  (heli)" },
      "geometry": { "type": "Point", "coordinates": [-72.396111111111097, 46.365, 0.0] }
    },
    {
      "type": "Feature",
      "properties": { "Layer": "AEROPORT_AU_QUEBEC", "Id": "CYVB", "Station": "BONAVENTURE" },
      "geometry": { "type": "Point", "coordinates": [-65.460277777777804, 48.071111111111101, 0.0] }
    },
    {
      "type": "Feature",
      "properties": { "Layer": "AEROPORT_AU_QUEBEC", "Id": "CZBM", "Station": "BROMONT" },
      "geometry": { "type": "Point", "coordinates": [-72.7419444444444, 45.290833333333303, 0.0] }
    },
    {
      "type": "Feature",
      "properties": { "Layer": "AEROPORT_AU_QUEBEC", "Id": "CCP6", "Station": "CANIAPISCAU" },
      "geometry": { "type": "Point", "coordinates": [-69.892777777777795, 54.837777777777802, 0.0] }
    },
    {
      "type": "Feature",
      "properties": { "Layer": "AEROPORT_AU_QUEBEC", "Id": "CTF3", "Station": "CAUSAPSCAL" },
      "geometry": { "type": "Point", "coordinates": [-67.251388888888897, 48.311388888888899, 0.0] }
    },
    {
      "type": "Feature",
      "properties": { "Layer": "AEROPORT_AU_QUEBEC", "Id": "CYML", "Station": "CHARLEVOIX" },
      "geometry": { "type": "Point", "coordinates": [-70.223888888888894, 47.5975, 0.0] }
    },
    {
      "type": "Feature",
      "properties": { "Layer": "AEROPORT_AU_QUEBEC", "Id": "CYHR", "Station": "CHEVERY" },
      "geometry": { "type": "Point", "coordinates": [-59.636666666666699, 50.468888888888898, 0.0] }
    },
    {
      "type": "Feature",
      "properties": {
        "Layer": "AEROPORT_AU_QUEBEC",
        "Id": "CYMT",
        "Station": "CHIBOUGAMAU/CHAPAIS"
      },
      "geometry": { "type": "Point", "coordinates": [-74.528055555555596, 49.771944444444401, 0.0] }
    },
    {
      "type": "Feature",
      "properties": {
        "Layer": "AEROPORT_AU_QUEBEC",
        "Id": "CSB4",
        "Station": "CHIBOUGAMAU (heli)"
      },
      "geometry": { "type": "Point", "coordinates": [-74.383333333333297, 49.9, 0.0] }
    },
    {
      "type": "Feature",
      "properties": {
        "Layer": "AEROPORT_AU_QUEBEC",
        "Id": "CSE2",
        "Station": "CHIBOUGAMAU (hydro-quebec heli)"
      },
      "geometry": { "type": "Point", "coordinates": [-74.400277777777802, 49.887777777777799, 0.0] }
    },
    {
      "type": "Feature",
      "properties": {
        "Layer": "AEROPORT_AU_QUEBEC",
        "Id": "CCS7",
        "Station": "CHICOUTIMI (c.h. de chicoutimi heli)"
      },
      "geometry": { "type": "Point", "coordinates": [-71.047777777777796, 48.425833333333301, 0.0] }
    },
    {
      "type": "Feature",
      "properties": {
        "Layer": "AEROPORT_AU_QUEBEC",
        "Id": "CYRC",
        "Station": "CHICOUTIMI/ST-HONORE"
      },
      "geometry": { "type": "Point", "coordinates": [-71.050555555555505, 48.5208333333333, 0.0] }
    },
    {
      "type": "Feature",
      "properties": { "Layer": "AEROPORT_AU_QUEBEC", "Id": "CSU2", "Station": "CHISASIBI" },
      "geometry": { "type": "Point", "coordinates": [-78.916944444444496, 53.8055555555556, 0.0] }
    },
    {
      "type": "Feature",
      "properties": {
        "Layer": "AEROPORT_AU_QUEBEC",
        "Id": "CCP3",
        "Station": "CHUTE-ST-PHILLIPPE"
      },
      "geometry": { "type": "Point", "coordinates": [-75.245, 46.661111111111097, 0.0] }
    },
    {
      "type": "Feature",
      "properties": {
        "Layer": "AEROPORT_AU_QUEBEC",
        "Id": "CYDO",
        "Station": "DOLBEAU-ST-FELICIEN"
      },
      "geometry": { "type": "Point", "coordinates": [-72.375, 48.7783333333333, 0.0] }
    },
    {
      "type": "Feature",
      "properties": {
        "Layer": "AEROPORT_AU_QUEBEC",
        "Id": "CPH4",
        "Station": "DOLBEAU-MISTASSINI/POTVIN HELI BASE (Heli)"
      },
      "geometry": { "type": "Point", "coordinates": [-72.205, 48.930833333333297, 0.0] }
    },
    {
      "type": "Feature",
      "properties": { "Layer": "AEROPORT_AU_QUEBEC", "Id": "CSC3", "Station": "DRUMMONDVILLE" },
      "geometry": { "type": "Point", "coordinates": [-72.3947222222222, 45.845277777777802, 0.0] }
    },
    {
      "type": "Feature",
      "properties": {
        "Layer": "AEROPORT_AU_QUEBEC",
        "Id": "CTG3",
        "Station": "DU ROCHER-PERCÉ (PABOK)"
      },
      "geometry": { "type": "Point", "coordinates": [-64.564444444444405, 48.383333333333297, 0.0] }
    },
    {
      "type": "Feature",
      "properties": { "Layer": "AEROPORT_AU_QUEBEC", "Id": "CZEM", "Station": "EASTMAIN RIVER" },
      "geometry": { "type": "Point", "coordinates": [-78.5225, 52.226388888888899, 0.0] }
    },
    {
      "type": "Feature",
      "properties": { "Layer": "AEROPORT_AU_QUEBEC", "Id": "CEL8", "Station": "ÉLÉONORE" },
      "geometry": { "type": "Point", "coordinates": [-76.080277777777795, 52.718611111111102, 0.0] }
    },
    {
      "type": "Feature",
      "properties": { "Layer": "AEROPORT_AU_QUEBEC", "Id": "CSN7", "Station": "FARNHAM" },
      "geometry": { "type": "Point", "coordinates": [-73.007777777777804, 45.285555555555597, 0.0] }
    },
    {
      "type": "Feature",
      "properties": { "Layer": "AEROPORT_AU_QUEBEC", "Id": "CSD5", "Station": "FERMONT (Heli)" },
      "geometry": { "type": "Point", "coordinates": [-67.102222222222196, 52.8061111111111, 0.0] }
    },
    {
      "type": "Feature",
      "properties": { "Layer": "AEROPORT_AU_QUEBEC", "Id": "CTU2", "Station": "FONTANGES" },
      "geometry": { "type": "Point", "coordinates": [-71.173333333333304, 54.553888888888899, 0.0] }
    },
    {
      "type": "Feature",
      "properties": { "Layer": "AEROPORT_AU_QUEBEC", "Id": "CYFE", "Station": "FORESTVILLE" },
      "geometry": { "type": "Point", "coordinates": [-69.0972222222222, 48.746111111111098, 0.0] }
    },
    {
      "type": "Feature",
      "properties": { "Layer": "AEROPORT_AU_QUEBEC", "Id": "CYGP", "Station": "GASPE" },
      "geometry": { "type": "Point", "coordinates": [-64.479722222222193, 48.775277777777802, 0.0] }
    },
    {
      "type": "Feature",
      "properties": {
        "Layer": "AEROPORT_AU_QUEBEC",
        "Id": "CTR4",
        "Station": "GRANBY/ARTOPEX PLUS (Heli)"
      },
      "geometry": { "type": "Point", "coordinates": [-72.766111111111101, 45.390833333333298, 0.0] }
    },
    {
      "type": "Feature",
      "properties": {
        "Layer": "AEROPORT_AU_QUEBEC",
        "Id": "CTH3",
        "Station": "GRANDES-BERGERONNES"
      },
      "geometry": { "type": "Point", "coordinates": [-69.5427777777778, 48.232222222222198, 0.0] }
    },
    {
      "type": "Feature",
      "properties": {
        "Layer": "AEROPORT_AU_QUEBEC",
        "Id": "CTH5",
        "Station": "HARRINGTON HARBOUR (Heli)"
      },
      "geometry": { "type": "Point", "coordinates": [-59.480555555555597, 50.496111111111098, 0.0] }
    },
    {
      "type": "Feature",
      "properties": { "Layer": "AEROPORT_AU_QUEBEC", "Id": "CYGV", "Station": "HAVRE ST-PIERRE" },
      "geometry": { "type": "Point", "coordinates": [-63.6111111111111, 50.281944444444399, 0.0] }
    },
    {
      "type": "Feature",
      "properties": { "Layer": "AEROPORT_AU_QUEBEC", "Id": "CTA3", "Station": "ILE AUX COUDRES" },
      "geometry": { "type": "Point", "coordinates": [-70.384444444444497, 47.389444444444401, 0.0] }
    },
    {
      "type": "Feature",
      "properties": { "Layer": "AEROPORT_AU_QUEBEC", "Id": "CSH2", "Station": "ILE-AUX-GRUES" },
      "geometry": { "type": "Point", "coordinates": [-70.533333333333303, 47.072222222222202, 0.0] }
    },
    {
      "type": "Feature",
      "properties": {
        "Layer": "AEROPORT_AU_QUEBEC",
        "Id": "CYGR",
        "Station": "ILES-DE-LA-MADELEINE"
      },
      "geometry": { "type": "Point", "coordinates": [-61.778055555555603, 47.425, 0.0] }
    },
    {
      "type": "Feature",
      "properties": { "Layer": "AEROPORT_AU_QUEBEC", "Id": "CYPH", "Station": "INUKJUAK" },
      "geometry": { "type": "Point", "coordinates": [-78.076944444444393, 58.471944444444397, 0.0] }
    },
    {
      "type": "Feature",
      "properties": { "Layer": "AEROPORT_AU_QUEBEC", "Id": "CYIK", "Station": "IVUJIVIK" },
      "geometry": { "type": "Point", "coordinates": [-77.925277777777794, 62.4172222222222, 0.0] }
    },
    {
      "type": "Feature",
      "properties": { "Layer": "AEROPORT_AU_QUEBEC", "Id": "CSG3", "Station": "JOLIETTE" },
      "geometry": { "type": "Point", "coordinates": [-73.501666666666694, 46.045, 0.0] }
    },
    {
      "type": "Feature",
      "properties": { "Layer": "AEROPORT_AU_QUEBEC", "Id": "CSJ2", "Station": "KANAWATA AEROPARC" },
      "geometry": { "type": "Point", "coordinates": [-74.133611111111094, 47.594722222222202, 0.0] }
    },
    {
      "type": "Feature",
      "properties": {
        "Layer": "AEROPORT_AU_QUEBEC",
        "Id": "CYLU",
        "Station": "KANGIQSUALUJJUAQ (GEORGES RIVER)"
      },
      "geometry": { "type": "Point", "coordinates": [-65.992777777777803, 58.711388888888898, 0.0] }
    },
    {
      "type": "Feature",
      "properties": {
        "Layer": "AEROPORT_AU_QUEBEC",
        "Id": "CYKG",
        "Station": "KANGIQSUJUAQ (WAKEHAM BAY)"
      },
      "geometry": { "type": "Point", "coordinates": [-71.9294444444444, 61.588611111111099, 0.0] }
    },
    {
      "type": "Feature",
      "properties": { "Layer": "AEROPORT_AU_QUEBEC", "Id": "CYAS", "Station": "KANGIRSUK" },
      "geometry": { "type": "Point", "coordinates": [-69.999166666666696, 60.0272222222222, 0.0] }
    },
    {
      "type": "Feature",
      "properties": {
        "Layer": "AEROPORT_AU_QUEBEC",
        "Id": "CTP9",
        "Station": "KATTINIQ/DONALDSON"
      },
      "geometry": { "type": "Point", "coordinates": [-73.321388888888904, 61.662222222222198, 0.0] }
    },
    {
      "type": "Feature",
      "properties": { "Layer": "AEROPORT_AU_QUEBEC", "Id": "CTK6", "Station": "KEGASKA" },
      "geometry": { "type": "Point", "coordinates": [-61.265833333333298, 50.195833333333297, 0.0] }
    },
    {
      "type": "Feature",
      "properties": { "Layer": "AEROPORT_AU_QUEBEC", "Id": "CYVP", "Station": "KUUJJUAQ" },
      "geometry": { "type": "Point", "coordinates": [-68.426944444444402, 58.096111111111099, 0.0] }
    },
    {
      "type": "Feature",
      "properties": { "Layer": "AEROPORT_AU_QUEBEC", "Id": "CYGW", "Station": "KUUJJUARAPIK" },
      "geometry": { "type": "Point", "coordinates": [-77.765277777777797, 55.281944444444399, 0.0] }
    },
    {
      "type": "Feature",
      "properties": {
        "Layer": "AEROPORT_AU_QUEBEC",
        "Id": "CSA2",
        "Station": "LAC AGILE (MASCOUCHE)"
      },
      "geometry": { "type": "Point", "coordinates": [-73.638055555555596, 45.791944444444397, 0.0] }
    },
    {
      "type": "Feature",
      "properties": { "Layer": "AEROPORT_AU_QUEBEC", "Id": "CTE5", "Station": "LAC-LA-PERCHAUDE" },
      "geometry": { "type": "Point", "coordinates": [-72.845555555555507, 46.6225, 0.0] }
    },
    {
      "type": "Feature",
      "properties": { "Layer": "AEROPORT_AU_QUEBEC", "Id": "CSL3", "Station": "LAC-A-LA-TORTUE" },
      "geometry": { "type": "Point", "coordinates": [-72.630277777777806, 46.621666666666698, 0.0] }
    },
    {
      "type": "Feature",
      "properties": { "Layer": "AEROPORT_AU_QUEBEC", "Id": "CSC5", "Station": "LAC ETCHEMIN" },
      "geometry": { "type": "Point", "coordinates": [-70.501388888888897, 46.407222222222202, 0.0] }
    },
    {
      "type": "Feature",
      "properties": { "Layer": "AEROPORT_AU_QUEBEC", "Id": "CSE4", "Station": "LACHUTE" },
      "geometry": { "type": "Point", "coordinates": [-74.370555555555597, 45.639444444444401, 0.0] }
    },
    {
      "type": "Feature",
      "properties": { "Layer": "AEROPORT_AU_QUEBEC", "Id": "CYGL", "Station": "LA GRANDE RIVIERE" },
      "geometry": { "type": "Point", "coordinates": [-77.704166666666694, 53.625277777777796, 0.0] }
    },
    {
      "type": "Feature",
      "properties": { "Layer": "AEROPORT_AU_QUEBEC", "Id": "CYAD", "Station": "LA GRANDE-3" },
      "geometry": { "type": "Point", "coordinates": [-76.196388888888904, 53.571944444444398, 0.0] }
    },
    {
      "type": "Feature",
      "properties": { "Layer": "AEROPORT_AU_QUEBEC", "Id": "CYAH", "Station": "LA GRANDE-4" },
      "geometry": { "type": "Point", "coordinates": [-73.675277777777794, 53.754722222222199, 0.0] }
    },
    {
      "type": "Feature",
      "properties": {
        "Layer": "AEROPORT_AU_QUEBEC",
        "Id": "CYFJ",
        "Station": "LA MACAZA/MONT-TREMBLANT INTL INC"
      },
      "geometry": { "type": "Point", "coordinates": [-74.78, 46.409444444444397, 0.0] }
    },
    {
      "type": "Feature",
      "properties": { "Layer": "AEROPORT_AU_QUEBEC", "Id": "CTT5", "Station": "LA ROMAINE" },
      "geometry": { "type": "Point", "coordinates": [-60.673888888888897, 50.259722222222202, 0.0] }
    },
    {
      "type": "Feature",
      "properties": { "Layer": "AEROPORT_AU_QUEBEC", "Id": "CSR8", "Station": "LA SARRE" },
      "geometry": { "type": "Point", "coordinates": [-79.178611111111096, 48.9172222222222, 0.0] }
    },
    {
      "type": "Feature",
      "properties": { "Layer": "AEROPORT_AU_QUEBEC", "Id": "CSL2", "Station": "LA SARRE (Heli)" },
      "geometry": { "type": "Point", "coordinates": [-79.251666666666694, 48.808611111111098, 0.0] }
    },
    {
      "type": "Feature",
      "properties": { "Layer": "AEROPORT_AU_QUEBEC", "Id": "CTU5", "Station": "LA TABATIERE" },
      "geometry": { "type": "Point", "coordinates": [-58.975555555555601, 50.830833333333302, 0.0] }
    },
    {
      "type": "Feature",
      "properties": { "Layer": "AEROPORT_AU_QUEBEC", "Id": "CYLQ", "Station": "LA TUQUE" },
      "geometry": { "type": "Point", "coordinates": [-72.788888888888906, 47.4097222222222, 0.0] }
    },
    {
      "type": "Feature",
      "properties": {
        "Layer": "AEROPORT_AU_QUEBEC",
        "Id": "CSH4",
        "Station": "LEBEL-SUR-QUEVILLON"
      },
      "geometry": { "type": "Point", "coordinates": [-77.017222222222202, 49.030277777777798, 0.0] }
    },
    {
      "type": "Feature",
      "properties": {
        "Layer": "AEROPORT_AU_QUEBEC",
        "Id": "CTQ4",
        "Station": "LENNOXVILLE (AIRVIEW)"
      },
      "geometry": { "type": "Point", "coordinates": [-71.8625, 45.353333333333303, 0.0] }
    },
    {
      "type": "Feature",
      "properties": { "Layer": "AEROPORT_AU_QUEBEC", "Id": "CSJ4", "Station": "LOUISEVILLE" },
      "geometry": { "type": "Point", "coordinates": [-72.904444444444493, 46.246111111111098, 0.0] }
    },
    {
      "type": "Feature",
      "properties": {
        "Layer": "AEROPORT_AU_QUEBEC",
        "Id": "CYBX",
        "Station": "LOURDES-DE-BLANC-SABLON"
      },
      "geometry": { "type": "Point", "coordinates": [-57.185277777777799, 51.443611111111103, 0.0] }
    },
    {
      "type": "Feature",
      "properties": {
        "Layer": "AEROPORT_AU_QUEBEC",
        "Id": "CSE3",
        "Station": "LOURDES-DE-JOLIETTE"
      },
      "geometry": { "type": "Point", "coordinates": [-73.452777777777797, 46.109444444444399, 0.0] }
    },
    {
      "type": "Feature",
      "properties": { "Layer": "AEROPORT_AU_QUEBEC", "Id": "CMN5", "Station": "MANIC-5" },
      "geometry": { "type": "Point", "coordinates": [-68.8325, 50.6575, 0.0] }
    },
    {
      "type": "Feature",
      "properties": { "Layer": "AEROPORT_AU_QUEBEC", "Id": "CYMW", "Station": "MANIWAKI" },
      "geometry": { "type": "Point", "coordinates": [-75.990555555555602, 46.272777777777797, 0.0] }
    },
    {
      "type": "Feature",
      "properties": { "Layer": "AEROPORT_AU_QUEBEC", "Id": "CSK4", "Station": "MANSONVILLE" },
      "geometry": { "type": "Point", "coordinates": [-72.401944444444496, 45.026388888888903, 0.0] }
    },
    {
      "type": "Feature",
      "properties": { "Layer": "AEROPORT_AU_QUEBEC", "Id": "CYNM", "Station": "MATAGAMI" },
      "geometry": { "type": "Point", "coordinates": [-77.802777777777806, 49.761666666666699, 0.0] }
    },
    {
      "type": "Feature",
      "properties": { "Layer": "AEROPORT_AU_QUEBEC", "Id": "CYME", "Station": "MATANE" },
      "geometry": { "type": "Point", "coordinates": [-67.452222222222204, 48.856388888888901, 0.0] }
    },
    {
      "type": "Feature",
      "properties": { "Layer": "AEROPORT_AU_QUEBEC", "Id": "LFVM", "Station": "MIQUELON" },
      "geometry": { "type": "Point", "coordinates": [-56.386111111111099, 47.093888888888898, 0.0] }
    },
    {
      "type": "Feature",
      "properties": { "Layer": "AEROPORT_AU_QUEBEC", "Id": "CYYY", "Station": "MONT-JOLI" },
      "geometry": { "type": "Point", "coordinates": [-68.2075, 48.608888888888899, 0.0] }
    },
    {
      "type": "Feature",
      "properties": { "Layer": "AEROPORT_AU_QUEBEC", "Id": "CSD4", "Station": "MONT-LAURIER" },
      "geometry": { "type": "Point", "coordinates": [-75.577777777777797, 46.564444444444398, 0.0] }
    },
    {
      "type": "Feature",
      "properties": { "Layer": "AEROPORT_AU_QUEBEC", "Id": "CSE5", "Station": "MONTMAGNY" },
      "geometry": { "type": "Point", "coordinates": [-70.515833333333305, 47.001944444444398, 0.0] }
    },
    {
      "type": "Feature",
      "properties": {
        "Layer": "AEROPORT_AU_QUEBEC",
        "Id": "CSP6",
        "Station": "MONTRÉAL/AÉROPARC ILE PERROT"
      },
      "geometry": { "type": "Point", "coordinates": [-73.907222222222202, 45.376111111111101, 0.0] }
    },
    {
      "type": "Feature",
      "properties": {
        "Layer": "AEROPORT_AU_QUEBEC",
        "Id": "CSW5",
        "Station": "MONTRÉAL (BELL) (Heli)"
      },
      "geometry": { "type": "Point", "coordinates": [-73.931111111111093, 45.685, 0.0] }
    },
    {
      "type": "Feature",
      "properties": {
        "Layer": "AEROPORT_AU_QUEBEC",
        "Id": "CSH9",
        "Station": "MONTRÉAL EAST (AIM) (Heli)"
      },
      "geometry": { "type": "Point", "coordinates": [-73.562222222222204, 45.635833333333302, 0.0] }
    },
    {
      "type": "Feature",
      "properties": {
        "Layer": "AEROPORT_AU_QUEBEC",
        "Id": "CYMX",
        "Station": "MONTRÉAL INTL (MIRABEL)"
      },
      "geometry": { "type": "Point", "coordinates": [-74.038611111111095, 45.6805555555556, 0.0] }
    },
    {
      "type": "Feature",
      "properties": {
        "Layer": "AEROPORT_AU_QUEBEC",
        "Id": "CSN2",
        "Station": "MONTRÉAL/KRUGER (Heli)"
      },
      "geometry": { "type": "Point", "coordinates": [-73.635833333333295, 45.5069444444444, 0.0] }
    },
    {
      "type": "Feature",
      "properties": {
        "Layer": "AEROPORT_AU_QUEBEC",
        "Id": "CLP2",
        "Station": "MONTRÉAL/LAVAL (ARTOPEX PLUS) (Heli)"
      },
      "geometry": { "type": "Point", "coordinates": [-73.75, 45.578611111111101, 0.0] }
    },
    {
      "type": "Feature",
      "properties": {
        "Layer": "AEROPORT_AU_QUEBEC",
        "Id": "CSS3",
        "Station": "MONTRÉAL/LES CEDRES"
      },
      "geometry": { "type": "Point", "coordinates": [-74.076666666666696, 45.3475, 0.0] }
    },
    {
      "type": "Feature",
      "properties": {
        "Layer": "AEROPORT_AU_QUEBEC",
        "Id": "CSH6",
        "Station": "MONTRÉAL/LES CEDRES (Heli)"
      },
      "geometry": { "type": "Point", "coordinates": [-74.0833333333333, 45.35, 0.0] }
    },
    {
      "type": "Feature",
      "properties": {
        "Layer": "AEROPORT_AU_QUEBEC",
        "Id": "CCH5",
        "Station": "MONTREAL/LONGUEUIL (CENTRE HOSPITALIER PIERRE-BOUCHER) (Heli)"
      },
      "geometry": { "type": "Point", "coordinates": [-73.46, 45.538055555555601, 0.0] }
    },
    {
      "type": "Feature",
      "properties": {
        "Layer": "AEROPORT_AU_QUEBEC",
        "Id": "CST2",
        "Station": "MONTREAL/MARINA VENIS (Heli)"
      },
      "geometry": { "type": "Point", "coordinates": [-73.778888888888901, 45.6325, 0.0] }
    },
    {
      "type": "Feature",
      "properties": {
        "Layer": "AEROPORT_AU_QUEBEC",
        "Id": "CSK3",
        "Station": "MONTREAL/MASCOUCHE"
      },
      "geometry": { "type": "Point", "coordinates": [-73.598055555555504, 45.718611111111102, 0.0] }
    },
    {
      "type": "Feature",
      "properties": {
        "Layer": "AEROPORT_AU_QUEBEC",
        "Id": "CYUL",
        "Station": "MONTREAL/PIERRE ELLIOTT TRUDEAU INTL"
      },
      "geometry": { "type": "Point", "coordinates": [-73.740833333333299, 45.470555555555599, 0.0] }
    },
    {
      "type": "Feature",
      "properties": {
        "Layer": "AEROPORT_AU_QUEBEC",
        "Id": "CPZ6",
        "Station": "MONTREAL/POINT ZERO (HELI)"
      },
      "geometry": { "type": "Point", "coordinates": [-73.6575, 45.529722222222198, 0.0] }
    },
    {
      "type": "Feature",
      "properties": {
        "Layer": "AEROPORT_AU_QUEBEC",
        "Id": "CSZ8",
        "Station": "MONTREAL (SACRÉ-COEUR) (HELI)"
      },
      "geometry": { "type": "Point", "coordinates": [-73.7125, 45.533055555555599, 0.0] }
    },
    {
      "type": "Feature",
      "properties": {
        "Layer": "AEROPORT_AU_QUEBEC",
        "Id": "CYHU",
        "Station": "MONTREAL/ST-HUBERT"
      },
      "geometry": { "type": "Point", "coordinates": [-73.416944444444496, 45.518055555555598, 0.0] }
    },
    {
      "type": "Feature",
      "properties": {
        "Layer": "AEROPORT_AU_QUEBEC",
        "Id": "CTG2",
        "Station": "MONTREAL/ST-HUBERT HELICRAFT (Heli)"
      },
      "geometry": { "type": "Point", "coordinates": [-73.411666666666704, 45.5325, 0.0] }
    },
    {
      "type": "Feature",
      "properties": {
        "Layer": "AEROPORT_AU_QUEBEC",
        "Id": "CST3",
        "Station": "MONTREAL/ST-LAZARE"
      },
      "geometry": { "type": "Point", "coordinates": [-74.134166666666701, 45.3925, 0.0] }
    },
    {
      "type": "Feature",
      "properties": {
        "Layer": "AEROPORT_AU_QUEBEC",
        "Id": "CSZ3",
        "Station": "MONT-TREMBLANT/ST-JOVITE"
      },
      "geometry": { "type": "Point", "coordinates": [-74.583611111111097, 46.154166666666697, 0.0] }
    },
    {
      "type": "Feature",
      "properties": {
        "Layer": "AEROPORT_AU_QUEBEC",
        "Id": "CHT3",
        "Station": "MONT-TREMBLANT/ST-JOVITE (HELI-TREMBLANT) (Heli)"
      },
      "geometry": { "type": "Point", "coordinates": [-73.541388888888903, 46.114166666666698, 0.0] }
    },
    {
      "type": "Feature",
      "properties": { "Layer": "AEROPORT_AU_QUEBEC", "Id": "CYNA", "Station": "NATASHQUAN" },
      "geometry": { "type": "Point", "coordinates": [-61.788888888888899, 50.19, 0.0] }
    },
    {
      "type": "Feature",
      "properties": { "Layer": "AEROPORT_AU_QUEBEC", "Id": "CYHH", "Station": "NEMISCAU" },
      "geometry": { "type": "Point", "coordinates": [-76.135555555555598, 51.691111111111098, 0.0] }
    },
    {
      "type": "Feature",
      "properties": { "Layer": "AEROPORT_AU_QUEBEC", "Id": "CSK9", "Station": "NICOLET (Heli)" },
      "geometry": { "type": "Point", "coordinates": [-72.647777777777804, 46.220277777777802, 0.0] }
    },
    {
      "type": "Feature",
      "properties": { "Layer": "AEROPORT_AU_QUEBEC", "Id": "CPN8", "Station": "OPINACA" },
      "geometry": { "type": "Point", "coordinates": [-76.611944444444404, 52.221944444444397, 0.0] }
    },
    {
      "type": "Feature",
      "properties": { "Layer": "AEROPORT_AU_QUEBEC", "Id": "CYND", "Station": "OTTAWA/GATINEAU" },
      "geometry": { "type": "Point", "coordinates": [-75.563611111111101, 45.521666666666697, 0.0] }
    },
    {
      "type": "Feature",
      "properties": {
        "Layer": "AEROPORT_AU_QUEBEC",
        "Id": "CTA9",
        "Station": "OTTAWA/GATINEAU (CASINO) (Heli)"
      },
      "geometry": { "type": "Point", "coordinates": [-75.726388888888906, 45.446388888888897, 0.0] }
    },
    {
      "type": "Feature",
      "properties": { "Layer": "AEROPORT_AU_QUEBEC", "Id": "CYPP", "Station": "PARENT" },
      "geometry": { "type": "Point", "coordinates": [-74.608055555555595, 47.931944444444397, 0.0] }
    },
    {
      "type": "Feature",
      "properties": { "Layer": "AEROPORT_AU_QUEBEC", "Id": "CPN2", "Station": "PONTIAC AIRPAK" },
      "geometry": { "type": "Point", "coordinates": [-76.169166666666698, 45.5275, 0.0] }
    },
    {
      "type": "Feature",
      "properties": { "Layer": "AEROPORT_AU_QUEBEC", "Id": "CYPN", "Station": "PORT-MENIER" },
      "geometry": { "type": "Point", "coordinates": [-64.288611111111095, 49.836388888888898, 0.0] }
    },
    {
      "type": "Feature",
      "properties": {
        "Layer": "AEROPORT_AU_QUEBEC",
        "Id": "CSY6",
        "Station": "POSTE LEMOYNE (COMPLEX LG-3) (Heli)"
      },
      "geometry": { "type": "Point", "coordinates": [-75.031388888888898, 53.482777777777798, 0.0] }
    },
    {
      "type": "Feature",
      "properties": {
        "Layer": "AEROPORT_AU_QUEBEC",
        "Id": "CSF3",
        "Station": "POSTE MONTAGNAIS (MILE 134)"
      },
      "geometry": { "type": "Point", "coordinates": [-65.715, 51.888611111111103, 0.0] }
    },
    {
      "type": "Feature",
      "properties": { "Layer": "AEROPORT_AU_QUEBEC", "Id": "CPM3", "Station": "POURVOIRIE MIRAGE" },
      "geometry": { "type": "Point", "coordinates": [-72.841388888888901, 53.8025, 0.0] }
    },
    {
      "type": "Feature",
      "properties": { "Layer": "AEROPORT_AU_QUEBEC", "Id": "CYPX", "Station": "PUVIRNITUQ" },
      "geometry": { "type": "Point", "coordinates": [-77.2875, 60.052222222222198, 0.0] }
    },
    {
      "type": "Feature",
      "properties": { "Layer": "AEROPORT_AU_QUEBEC", "Id": "CYHA", "Station": "QUAQTAQ" },
      "geometry": { "type": "Point", "coordinates": [-69.617777777777803, 61.046388888888899, 0.0] }
    },
    {
      "type": "Feature",
      "properties": {
        "Layer": "AEROPORT_AU_QUEBEC",
        "Id": "CYQB",
        "Station": "QUEBEC/JEAN LESAGE INTL"
      },
      "geometry": { "type": "Point", "coordinates": [-71.393333333333302, 46.7911111111111, 0.0] }
    },
    {
      "type": "Feature",
      "properties": {
        "Layer": "AEROPORT_AU_QUEBEC",
        "Id": "CTS2",
        "Station": "QUEBEC/BEAUPORT (HQ) (Heli)"
      },
      "geometry": { "type": "Point", "coordinates": [-71.193888888888907, 46.879166666666698, 0.0] }
    },
    {
      "type": "Feature",
      "properties": {
        "Layer": "AEROPORT_AU_QUEBEC",
        "Id": "CTJ2",
        "Station": "QUEBEC (COAST GUARD) (Heli)"
      },
      "geometry": { "type": "Point", "coordinates": [-71.203611111111101, 46.8061111111111, 0.0] }
    },
    {
      "type": "Feature",
      "properties": {
        "Layer": "AEROPORT_AU_QUEBEC",
        "Id": "CSZ2",
        "Station": "QUEBEC (COMPLEX H) (Heli)"
      },
      "geometry": { "type": "Point", "coordinates": [-71.211666666666702, 46.807222222222201, 0.0] }
    },
    {
      "type": "Feature",
      "properties": {
        "Layer": "AEROPORT_AU_QUEBEC",
        "Id": "CTJ5",
        "Station": "QUÉBEC/HOPITAL DE L'ENFANT-JESUS (Heli)"
      },
      "geometry": { "type": "Point", "coordinates": [-71.225277777777805, 46.8375, 0.0] }
    },
    {
      "type": "Feature",
      "properties": { "Layer": "AEROPORT_AU_QUEBEC", "Id": "CSX3", "Station": "RICHELIEU" },
      "geometry": { "type": "Point", "coordinates": [-73.234166666666695, 45.447777777777802, 0.0] }
    },
    {
      "type": "Feature",
      "properties": { "Layer": "AEROPORT_AU_QUEBEC", "Id": "CYXK", "Station": "RIMOUSKI" },
      "geometry": { "type": "Point", "coordinates": [-68.496944444444495, 48.478055555555599, 0.0] }
    },
    {
      "type": "Feature",
      "properties": {
        "Layer": "AEROPORT_AU_QUEBEC",
        "Id": "CTH7",
        "Station": "RIVIERE-AUX-SAUMONS"
      },
      "geometry": { "type": "Point", "coordinates": [-62.295277777777798, 49.401388888888903, 0.0] }
    },
    {
      "type": "Feature",
      "properties": { "Layer": "AEROPORT_AU_QUEBEC", "Id": "CRB5", "Station": "RIVIERE BELL" },
      "geometry": { "type": "Point", "coordinates": [-62.236944444444397, 49.078888888888898, 0.0] }
    },
    {
      "type": "Feature",
      "properties": { "Layer": "AEROPORT_AU_QUEBEC", "Id": "CRB4", "Station": "RIVIERE BONNARD" },
      "geometry": { "type": "Point", "coordinates": [-71.1625, 50.704444444444398, 0.0] }
    },
    {
      "type": "Feature",
      "properties": { "Layer": "AEROPORT_AU_QUEBEC", "Id": "CYRI", "Station": "RIVIERE-DU-LOUP" },
      "geometry": { "type": "Point", "coordinates": [-69.584444444444401, 47.764444444444401, 0.0] }
    },
    {
      "type": "Feature",
      "properties": {
        "Layer": "AEROPORT_AU_QUEBEC",
        "Id": "CSS2",
        "Station": "RIVIERE-DU-LOUP (Heli)"
      },
      "geometry": { "type": "Point", "coordinates": [-69.533333333333303, 47.85, 0.0] }
    },
    {
      "type": "Feature",
      "properties": {
        "Layer": "AEROPORT_AU_QUEBEC",
        "Id": "CRT2",
        "Station": "RIVIERE TÉMISCAMIE (AIR ROBERVAL LTEE)"
      },
      "geometry": { "type": "Point", "coordinates": [-72.983333333333306, 51.008611111111101, 0.0] }
    },
    {
      "type": "Feature",
      "properties": { "Layer": "AEROPORT_AU_QUEBEC", "Id": "CYRJ", "Station": "ROBERVAL" },
      "geometry": { "type": "Point", "coordinates": [-72.265555555555594, 48.52, 0.0] }
    },
    {
      "type": "Feature",
      "properties": { "Layer": "AEROPORT_AU_QUEBEC", "Id": "CTY5", "Station": "ROUGEMONT" },
      "geometry": { "type": "Point", "coordinates": [-73.037777777777805, 45.438333333333297, 0.0] }
    },
    {
      "type": "Feature",
      "properties": { "Layer": "AEROPORT_AU_QUEBEC", "Id": "CYUY", "Station": "ROUYN-NORANDA" },
      "geometry": { "type": "Point", "coordinates": [-78.835555555555501, 48.206111111111099, 0.0] }
    },
    {
      "type": "Feature",
      "properties": { "Layer": "AEROPORT_AU_QUEBEC", "Id": "CSG9", "Station": "SAGARD (Heli)" },
      "geometry": { "type": "Point", "coordinates": [-70.0775, 47.990833333333299, 0.0] }
    },
    {
      "type": "Feature",
      "properties": {
        "Layer": "AEROPORT_AU_QUEBEC",
        "Id": "CSV2",
        "Station": "STE-AGATHE (AIM) (Heli)"
      },
      "geometry": { "type": "Point", "coordinates": [-74.3, 46.116666666666703, 0.0] }
    },
    {
      "type": "Feature",
      "properties": {
        "Layer": "AEROPORT_AU_QUEBEC",
        "Id": "CDD3",
        "Station": "STE-AGNES-DE-DUNDEE"
      },
      "geometry": { "type": "Point", "coordinates": [-74.343333333333305, 45.0475, 0.0] }
    },
    {
      "type": "Feature",
      "properties": {
        "Layer": "AEROPORT_AU_QUEBEC",
        "Id": "CAA2",
        "Station": "ST-ANDRÉ-AVELLIN (RICHARD MARCOTTE)"
      },
      "geometry": { "type": "Point", "coordinates": [-75.072222222222194, 45.741111111111103, 0.0] }
    },
    {
      "type": "Feature",
      "properties": {
        "Layer": "AEROPORT_AU_QUEBEC",
        "Id": "CYSZ",
        "Station": "STE-ANNE-DES-MONTS"
      },
      "geometry": { "type": "Point", "coordinates": [-66.528888888888901, 49.12, 0.0] }
    },
    {
      "type": "Feature",
      "properties": { "Layer": "AEROPORT_AU_QUEBEC", "Id": "CTQ6", "Station": "ST-ANSELME" },
      "geometry": { "type": "Point", "coordinates": [-70.955, 46.621944444444402, 0.0] }
    },
    {
      "type": "Feature",
      "properties": { "Layer": "AEROPORT_AU_QUEBEC", "Id": "CYIF", "Station": "ST-AUGUSTIN" },
      "geometry": { "type": "Point", "coordinates": [-58.6575, 51.209722222222197, 0.0] }
    },
    {
      "type": "Feature",
      "properties": {
        "Layer": "AEROPORT_AU_QUEBEC",
        "Id": "CTH9",
        "Station": "ST-AUGUSTIN (Heli)"
      },
      "geometry": { "type": "Point", "coordinates": [-58.643333333333302, 51.221111111111099, 0.0] }
    },
    {
      "type": "Feature",
      "properties": {
        "Layer": "AEROPORT_AU_QUEBEC",
        "Id": "CTR6",
        "Station": "ST-BASILE (MARCOTTE)"
      },
      "geometry": { "type": "Point", "coordinates": [-71.8263888888889, 46.783611111111099, 0.0] }
    },
    {
      "type": "Feature",
      "properties": {
        "Layer": "AEROPORT_AU_QUEBEC",
        "Id": "CTA4",
        "Station": "ST-BRUNO-DE-GUIGUES"
      },
      "geometry": { "type": "Point", "coordinates": [-79.418055555555597, 47.449166666666699, 0.0] }
    },
    {
      "type": "Feature",
      "properties": { "Layer": "AEROPORT_AU_QUEBEC", "Id": "CSS4", "Station": "ST-DOMINIQUE" },
      "geometry": { "type": "Point", "coordinates": [-72.818888888888907, 45.6325, 0.0] }
    },
    {
      "type": "Feature",
      "properties": { "Layer": "AEROPORT_AU_QUEBEC", "Id": "CSY4", "Station": "ST-DONAT" },
      "geometry": { "type": "Point", "coordinates": [-74.181388888888904, 46.305833333333297, 0.0] }
    },
    {
      "type": "Feature",
      "properties": { "Layer": "AEROPORT_AU_QUEBEC", "Id": "CES2", "Station": "ST-ESPRIT" },
      "geometry": { "type": "Point", "coordinates": [-73.6725, 45.911388888888901, 0.0] }
    },
    {
      "type": "Feature",
      "properties": { "Layer": "AEROPORT_AU_QUEBEC", "Id": "CSH5", "Station": "ST-FERDINAND" },
      "geometry": { "type": "Point", "coordinates": [-71.536111111111097, 46.126111111111101, 0.0] }
    },
    {
      "type": "Feature",
      "properties": { "Layer": "AEROPORT_AU_QUEBEC", "Id": "CSZ4", "Station": "ST-FREDERIC" },
      "geometry": { "type": "Point", "coordinates": [-70.960833333333298, 46.331388888888902, 0.0] }
    },
    {
      "type": "Feature",
      "properties": { "Layer": "AEROPORT_AU_QUEBEC", "Id": "CYSG", "Station": "ST-GEORGES" },
      "geometry": { "type": "Point", "coordinates": [-70.714722222222207, 46.096388888888903, 0.0] }
    },
    {
      "type": "Feature",
      "properties": { "Layer": "AEROPORT_AU_QUEBEC", "Id": "CSU3", "Station": "ST-HYACINTHE" },
      "geometry": { "type": "Point", "coordinates": [-73.015, 45.606666666666698, 0.0] }
    },
    {
      "type": "Feature",
      "properties": { "Layer": "AEROPORT_AU_QUEBEC", "Id": "CYJN", "Station": "ST-JEAN" },
      "geometry": { "type": "Point", "coordinates": [-73.281111111111102, 45.294444444444402, 0.0] }
    },
    {
      "type": "Feature",
      "properties": {
        "Layer": "AEROPORT_AU_QUEBEC",
        "Id": "CSG5",
        "Station": "ST-JEAN CHRYSOSTOME"
      },
      "geometry": { "type": "Point", "coordinates": [-71.151666666666699, 46.685277777777799, 0.0] }
    },
    {
      "type": "Feature",
      "properties": { "Layer": "AEROPORT_AU_QUEBEC", "Id": "CSN3", "Station": "ST-JEROME" },
      "geometry": { "type": "Point", "coordinates": [-74.061944444444407, 45.780277777777798, 0.0] }
    },
    {
      "type": "Feature",
      "properties": {
        "Layer": "AEROPORT_AU_QUEBEC",
        "Id": "CSZ6",
        "Station": "ST-JEROME (HYDRO-QUEBEC) (Heli)"
      },
      "geometry": { "type": "Point", "coordinates": [-74.026944444444396, 45.771111111111097, 0.0] }
    },
    {
      "type": "Feature",
      "properties": { "Layer": "AEROPORT_AU_QUEBEC", "Id": "CSM4", "Station": "STE-JULIENNE" },
      "geometry": { "type": "Point", "coordinates": [-73.723888888888894, 45.940833333333302, 0.0] }
    },
    {
      "type": "Feature",
      "properties": {
        "Layer": "AEROPORT_AU_QUEBEC",
        "Id": "CST7",
        "Station": "ST-LAMBERT-DE-LAUZON"
      },
      "geometry": { "type": "Point", "coordinates": [-71.1825, 46.560277777777799, 0.0] }
    },
    {
      "type": "Feature",
      "properties": {
        "Layer": "AEROPORT_AU_QUEBEC",
        "Id": "CSJ5",
        "Station": "ST-LOUIS-DE-FRANCE"
      },
      "geometry": { "type": "Point", "coordinates": [-72.630277777777806, 46.436666666666703, 0.0] }
    },
    {
      "type": "Feature",
      "properties": {
        "Layer": "AEROPORT_AU_QUEBEC",
        "Id": "CSU4",
        "Station": "STE-LUCIE-DE-BEAUREGARD"
      },
      "geometry": { "type": "Point", "coordinates": [-70.0325, 46.740833333333299, 0.0] }
    },
    {
      "type": "Feature",
      "properties": {
        "Layer": "AEROPORT_AU_QUEBEC",
        "Id": "CSF6",
        "Station": "STE-MARGUERITE (Heli)"
      },
      "geometry": { "type": "Point", "coordinates": [-74.053333333333299, 46.031111111111102, 0.0] }
    },
    {
      "type": "Feature",
      "properties": { "Layer": "AEROPORT_AU_QUEBEC", "Id": "CSP5", "Station": "ST-MATHIAS" },
      "geometry": { "type": "Point", "coordinates": [-73.241666666666703, 45.500833333333297, 0.0] }
    },
    {
      "type": "Feature",
      "properties": { "Layer": "AEROPORT_AU_QUEBEC", "Id": "CSX5", "Station": "ST-MATHIAS/GRANT" },
      "geometry": { "type": "Point", "coordinates": [-73.199444444444495, 45.471944444444397, 0.0] }
    },
    {
      "type": "Feature",
      "properties": {
        "Layer": "AEROPORT_AU_QUEBEC",
        "Id": "CSB3",
        "Station": "ST-MATHIEU-DE-BELOEIL"
      },
      "geometry": { "type": "Point", "coordinates": [-73.238611111111098, 45.59, 0.0] }
    },
    {
      "type": "Feature",
      "properties": {
        "Layer": "AEROPORT_AU_QUEBEC",
        "Id": "CMN3",
        "Station": "ST-MICHEL-DE-NAPIERVILLE"
      },
      "geometry": { "type": "Point", "coordinates": [-73.575833333333307, 45.213611111111099, 0.0] }
    },
    {
      "type": "Feature",
      "properties": {
        "Layer": "AEROPORT_AU_QUEBEC",
        "Id": "CSM5",
        "Station": "ST-MICHEL-DES-SAINTS"
      },
      "geometry": { "type": "Point", "coordinates": [-73.993611111111093, 46.680833333333297, 0.0] }
    },
    {
      "type": "Feature",
      "properties": { "Layer": "AEROPORT_AU_QUEBEC", "Id": "LFVP", "Station": "ST-PIERRE" },
      "geometry": { "type": "Point", "coordinates": [-56.1741666666667, 46.763055555555603, 0.0] }
    },
    {
      "type": "Feature",
      "properties": { "Layer": "AEROPORT_AU_QUEBEC", "Id": "CSK5", "Station": "ST-RAYMOND/PAQUET" },
      "geometry": { "type": "Point", "coordinates": [-71.785833333333301, 46.895, 0.0] }
    },
    {
      "type": "Feature",
      "properties": {
        "Layer": "AEROPORT_AU_QUEBEC",
        "Id": "CSL5",
        "Station": "ST-VICTOR-DE-BEAUCE"
      },
      "geometry": { "type": "Point", "coordinates": [-70.889166666666696, 46.118333333333297, 0.0] }
    },
    {
      "type": "Feature",
      "properties": {
        "Layer": "AEROPORT_AU_QUEBEC",
        "Id": "CSD3",
        "Station": "SALABERRY DE VALLEYFIELD"
      },
      "geometry": { "type": "Point", "coordinates": [-74.141388888888898, 45.2083333333333, 0.0] }
    },
    {
      "type": "Feature",
      "properties": { "Layer": "AEROPORT_AU_QUEBEC", "Id": "CYZG", "Station": "SALLUIT" },
      "geometry": { "type": "Point", "coordinates": [-75.667222222222193, 62.1794444444444, 0.0] }
    },
    {
      "type": "Feature",
      "properties": { "Layer": "AEROPORT_AU_QUEBEC", "Id": "CYKL", "Station": "SCHEFFERVILLE" },
      "geometry": { "type": "Point", "coordinates": [-66.805277777777803, 54.805277777777803, 0.0] }
    },
    {
      "type": "Feature",
      "properties": { "Layer": "AEROPORT_AU_QUEBEC", "Id": "CTK2", "Station": "SENNETERRE" },
      "geometry": { "type": "Point", "coordinates": [-77.181111111111093, 48.340555555555603, 0.0] }
    },
    {
      "type": "Feature",
      "properties": { "Layer": "AEROPORT_AU_QUEBEC", "Id": "CYZV", "Station": "SEPT-ILES" },
      "geometry": { "type": "Point", "coordinates": [-66.265555555555594, 50.223333333333301, 0.0] }
    },
    {
      "type": "Feature",
      "properties": {
        "Layer": "AEROPORT_AU_QUEBEC",
        "Id": "CTA2",
        "Station": "SEPT-ILES (HYDRO-QUEBEC) (Heli)"
      },
      "geometry": { "type": "Point", "coordinates": [-66.409166666666707, 50.288055555555601, 0.0] }
    },
    {
      "type": "Feature",
      "properties": { "Layer": "AEROPORT_AU_QUEBEC", "Id": "CYSC", "Station": "SHERBROOKE" },
      "geometry": { "type": "Point", "coordinates": [-71.691388888888895, 45.438611111111101, 0.0] }
    },
    {
      "type": "Feature",
      "properties": {
        "Layer": "AEROPORT_AU_QUEBEC",
        "Id": "CSG7",
        "Station": "SHERBROOKE (CHUS)/FRANCOIS DESOURDY (Heli)"
      },
      "geometry": { "type": "Point", "coordinates": [-71.868888888888904, 45.449722222222199, 0.0] }
    },
    {
      "type": "Feature",
      "properties": { "Layer": "AEROPORT_AU_QUEBEC", "Id": "CSY3", "Station": "SOREL" },
      "geometry": { "type": "Point", "coordinates": [-73.042222222222193, 45.9802777777778, 0.0] }
    },
    {
      "type": "Feature",
      "properties": {
        "Layer": "AEROPORT_AU_QUEBEC",
        "Id": "CST4",
        "Station": "SOREL-TRACY/AIR NATURE INC (Heli)"
      },
      "geometry": { "type": "Point", "coordinates": [-73.124444444444407, 46.036944444444401, 0.0] }
    },
    {
      "type": "Feature",
      "properties": { "Layer": "AEROPORT_AU_QUEBEC", "Id": "CSN5", "Station": "STANHOPE" },
      "geometry": { "type": "Point", "coordinates": [-71.794444444444395, 45.015555555555601, 0.0] }
    },
    {
      "type": "Feature",
      "properties": { "Layer": "AEROPORT_AU_QUEBEC", "Id": "CTQ2", "Station": "STANSTEAD/WELLER" },
      "geometry": { "type": "Point", "coordinates": [-72.035, 45.034444444444397, 0.0] }
    },
    {
      "type": "Feature",
      "properties": { "Layer": "AEROPORT_AU_QUEBEC", "Id": "CYTQ", "Station": "TASIUJAQ" },
      "geometry": { "type": "Point", "coordinates": [-69.955833333333302, 58.6677777777778, 0.0] }
    },
    {
      "type": "Feature",
      "properties": { "Layer": "AEROPORT_AU_QUEBEC", "Id": "CTB6", "Station": "TETE-A-LA-BALEINE" },
      "geometry": { "type": "Point", "coordinates": [-59.383611111111101, 50.674444444444397, 0.0] }
    },
    {
      "type": "Feature",
      "properties": { "Layer": "AEROPORT_AU_QUEBEC", "Id": "CSM3", "Station": "THETFORD MINES" },
      "geometry": { "type": "Point", "coordinates": [-71.257222222222197, 46.051666666666698, 0.0] }
    },
    {
      "type": "Feature",
      "properties": { "Layer": "AEROPORT_AU_QUEBEC", "Id": "CYRQ", "Station": "TROIS-RIVIERES" },
      "geometry": { "type": "Point", "coordinates": [-72.6805555555556, 46.351666666666702, 0.0] }
    },
    {
      "type": "Feature",
      "properties": { "Layer": "AEROPORT_AU_QUEBEC", "Id": "CYMU", "Station": "UMIUJAQ" },
      "geometry": { "type": "Point", "coordinates": [-76.518333333333302, 56.536111111111097, 0.0] }
    },
    {
      "type": "Feature",
      "properties": {
        "Layer": "AEROPORT_AU_QUEBEC",
        "Id": "CYOY",
        "Station": "VALCARTIER (W/C J.H.L.(JOE) LECOMPTE) (Heli)"
      },
      "geometry": { "type": "Point", "coordinates": [-71.5, 46.9, 0.0] }
    },
    {
      "type": "Feature",
      "properties": { "Layer": "AEROPORT_AU_QUEBEC", "Id": "CSQ3", "Station": "VALCOURT" },
      "geometry": { "type": "Point", "coordinates": [-72.310277777777799, 45.481111111111098, 0.0] }
    },
    {
      "type": "Feature",
      "properties": { "Layer": "AEROPORT_AU_QUEBEC", "Id": "CYVO", "Station": "VAL-D'OR" },
      "geometry": { "type": "Point", "coordinates": [-77.782777777777795, 48.053333333333299, 0.0] }
    },
    {
      "type": "Feature",
      "properties": {
        "Layer": "AEROPORT_AU_QUEBEC",
        "Id": "CSY5",
        "Station": "VALLEYFIELD (TRANSPORT BRS INC) (Heli)"
      },
      "geometry": { "type": "Point", "coordinates": [-74.149166666666702, 45.263611111111103, 0.0] }
    },
    {
      "type": "Feature",
      "properties": { "Layer": "AEROPORT_AU_QUEBEC", "Id": "CSR3", "Station": "VICTORIAVILLE" },
      "geometry": { "type": "Point", "coordinates": [-71.9294444444444, 46.1125, 0.0] }
    },
    {
      "type": "Feature",
      "properties": { "Layer": "AEROPORT_AU_QUEBEC", "Id": "CYKQ", "Station": "WASKAGANISH" },
      "geometry": { "type": "Point", "coordinates": [-78.758333333333297, 51.473333333333301, 0.0] }
    },
    {
      "type": "Feature",
      "properties": { "Layer": "AEROPORT_AU_QUEBEC", "Id": "CYNC", "Station": "WEMINDJI" },
      "geometry": { "type": "Point", "coordinates": [-78.831111111111099, 53.010555555555598, 0.0] }
    },
    {
      "type": "Feature",
      "properties": { "Layer": "AEROPORT_AU_QUEBEC", "Id": "CSU5", "Station": "WEYMONTACHIE" },
      "geometry": { "type": "Point", "coordinates": [-73.817222222222199, 47.9369444444444, 0.0] }
    },
    {
      "type": "Feature",
      "properties": {
        "Layer": "AEROPORT_EN_ONTARIO",
        "Id": "CPE2",
        "Station": "AJAX (PICKERING GEN HOSP) (Heli)"
      },
      "geometry": { "type": "Point", "coordinates": [-79.016666666666694, 43.8333333333333, 0.0] }
    },
    {
      "type": "Feature",
      "properties": { "Layer": "AEROPORT_EN_ONTARIO", "Id": "CNS4", "Station": "ALEXANDRIA" },
      "geometry": { "type": "Point", "coordinates": [-74.616666666666703, 45.3333333333333, 0.0] }
    },
    {
      "type": "Feature",
      "properties": { "Layer": "AEROPORT_EN_ONTARIO", "Id": "CNY4", "Station": "ALLISTON" },
      "geometry": { "type": "Point", "coordinates": [-79.8333333333333, 44.183333333333302, 0.0] }
    },
    {
      "type": "Feature",
      "properties": { "Layer": "AEROPORT_EN_ONTARIO", "Id": "CPJ2", "Station": "ALLISTON (Heli)" },
      "geometry": { "type": "Point", "coordinates": [-79.799444444444404, 44.148055555555601, 0.0] }
    },
    {
      "type": "Feature",
      "properties": {
        "Layer": "AEROPORT_EN_ONTARIO",
        "Id": "CPZ2",
        "Station": "ALLISTON (STEVENSON MEM HOSP) (Heli)"
      },
      "geometry": { "type": "Point", "coordinates": [-79.874166666666696, 44.155277777777798, 0.0] }
    },
    {
      "type": "Feature",
      "properties": {
        "Layer": "AEROPORT_EN_ONTARIO",
        "Id": "CKB6",
        "Station": "ANGLING LAKE/WAPEKEKA"
      },
      "geometry": { "type": "Point", "coordinates": [-89.579444444444405, 53.849166666666697, 0.0] }
    },
    {
      "type": "Feature",
      "properties": { "Layer": "AEROPORT_EN_ONTARIO", "Id": "CYYW", "Station": "ARMSTRONG" },
      "geometry": { "type": "Point", "coordinates": [-88.9097222222222, 50.290277777777803, 0.0] }
    },
    {
      "type": "Feature",
      "properties": { "Layer": "AEROPORT_EN_ONTARIO", "Id": "CPE9", "Station": "ARMSTRONG (Heli)" },
      "geometry": { "type": "Point", "coordinates": [-89.03, 50.3066666666667, 0.0] }
    },
    {
      "type": "Feature",
      "properties": {
        "Layer": "AEROPORT_EN_ONTARIO",
        "Id": "CNP3",
        "Station": "ARNPRIOR/SOUTH RENFREW MUNI"
      },
      "geometry": { "type": "Point", "coordinates": [-76.365833333333299, 45.413611111111102, 0.0] }
    },
    {
      "type": "Feature",
      "properties": { "Layer": "AEROPORT_EN_ONTARIO", "Id": "CNR9", "Station": "ARNSTEIN" },
      "geometry": { "type": "Point", "coordinates": [-79.927777777777806, 45.925555555555597, 0.0] }
    },
    {
      "type": "Feature",
      "properties": {
        "Layer": "AEROPORT_EN_ONTARIO",
        "Id": "CAR5",
        "Station": "ARTHUR (ARTHUR SOUTH)"
      },
      "geometry": { "type": "Point", "coordinates": [-80.433611111111105, 43.783055555555599, 0.0] }
    },
    {
      "type": "Feature",
      "properties": {
        "Layer": "AEROPORT_EN_ONTARIO",
        "Id": "CMZ2",
        "Station": "ARTHUR (METZ FIELD)"
      },
      "geometry": { "type": "Point", "coordinates": [-80.435833333333306, 43.810555555555602, 0.0] }
    },
    {
      "type": "Feature",
      "properties": {
        "Layer": "AEROPORT_EN_ONTARIO",
        "Id": "CPK9",
        "Station": "ARTHUR (PESKETT FIELD)"
      },
      "geometry": { "type": "Point", "coordinates": [-80.485, 43.7708333333333, 0.0] }
    },
    {
      "type": "Feature",
      "properties": {
        "Layer": "AEROPORT_EN_ONTARIO",
        "Id": "CPC3",
        "Station": "ARTHUR (WALTER'S FIELD)"
      },
      "geometry": { "type": "Point", "coordinates": [-80.45, 43.85, 0.0] }
    },
    {
      "type": "Feature",
      "properties": {
        "Layer": "AEROPORT_EN_ONTARIO",
        "Id": "CKF3",
        "Station": "ATIKOKAN (GEN HOSP) (Heli)"
      },
      "geometry": { "type": "Point", "coordinates": [-91.6, 48.75, 0.0] }
    },
    {
      "type": "Feature",
      "properties": { "Layer": "AEROPORT_EN_ONTARIO", "Id": "CYIB", "Station": "ATIKOKAN MUNI" },
      "geometry": { "type": "Point", "coordinates": [-91.638611111111103, 48.773888888888898, 0.0] }
    },
    {
      "type": "Feature",
      "properties": { "Layer": "AEROPORT_EN_ONTARIO", "Id": "CYAT", "Station": "ATTAWAPISKAT" },
      "geometry": { "type": "Point", "coordinates": [-82.431944444444497, 52.9275, 0.0] }
    },
    {
      "type": "Feature",
      "properties": { "Layer": "AEROPORT_EN_ONTARIO", "Id": "CAT1", "Station": "ATWOOD/COGHLIN" },
      "geometry": { "type": "Point", "coordinates": [-81.004444444444403, 43.683333333333302, 0.0] }
    },
    {
      "type": "Feature",
      "properties": {
        "Layer": "AEROPORT_EN_ONTARIO",
        "Id": "CAY5",
        "Station": "AYR/SARGEANT PRIVATE AIRFIELD"
      },
      "geometry": { "type": "Point", "coordinates": [-80.499166666666696, 48.305833333333297, 0.0] }
    },
    {
      "type": "Feature",
      "properties": { "Layer": "AEROPORT_EN_ONTARIO", "Id": "CPB9", "Station": "BALDWIN" },
      "geometry": { "type": "Point", "coordinates": [-79.340555555555596, 44.267222222222202, 0.0] }
    },
    {
      "type": "Feature",
      "properties": { "Layer": "AEROPORT_EN_ONTARIO", "Id": "CNW3", "Station": "BANCROFT" },
      "geometry": { "type": "Point", "coordinates": [-77.880555555555503, 45.073055555555598, 0.0] }
    },
    {
      "type": "Feature",
      "properties": {
        "Layer": "AEROPORT_EN_ONTARIO",
        "Id": "CPB7",
        "Station": "BANCROFT (NORTH HASTINGS DISTRICT HOSP) (Heli)"
      },
      "geometry": { "type": "Point", "coordinates": [-77.878888888888895, 45.071388888888897, 0.0] }
    },
    {
      "type": "Feature",
      "properties": {
        "Layer": "AEROPORT_EN_ONTARIO",
        "Id": "CYLS",
        "Station": "BARRIE-ORILLIA (LAKE SIMCOE REGIONAL)"
      },
      "geometry": { "type": "Point", "coordinates": [-79.5555555555556, 44.4861111111111, 0.0] }
    },
    {
      "type": "Feature",
      "properties": {
        "Layer": "AEROPORT_EN_ONTARIO",
        "Id": "CRV2",
        "Station": "BARRIE (ROYAL VICTORIA HOSP) (Heli)"
      },
      "geometry": { "type": "Point", "coordinates": [-79.665277777777803, 44.414444444444399, 0.0] }
    },
    {
      "type": "Feature",
      "properties": { "Layer": "AEROPORT_EN_ONTARIO", "Id": "CPF2", "Station": "BAR RIVER" },
      "geometry": { "type": "Point", "coordinates": [-84.092222222222205, 46.420277777777798, 0.0] }
    },
    {
      "type": "Feature",
      "properties": {
        "Layer": "AEROPORT_EN_ONTARIO",
        "Id": "CNZ4",
        "Station": "BARRY'S BAY/MADAWASKA VALLEY AIRPARK"
      },
      "geometry": { "type": "Point", "coordinates": [-77.65, 45.5, 0.0] }
    },
    {
      "type": "Feature",
      "properties": {
        "Layer": "AEROPORT_EN_ONTARIO",
        "Id": "CPV6",
        "Station": "BARRY'S BAY (ST. FRANCIS MEM HOSP) (Heli)"
      },
      "geometry": { "type": "Point", "coordinates": [-77.694166666666703, 45.482222222222198, 0.0] }
    },
    {
      "type": "Feature",
      "properties": {
        "Layer": "AEROPORT_EN_ONTARIO",
        "Id": "CBE3",
        "Station": "BEAMSVILLE/PANTERRA"
      },
      "geometry": { "type": "Point", "coordinates": [-79.474722222222198, 43.186388888888899, 0.0] }
    },
    {
      "type": "Feature",
      "properties": {
        "Layer": "AEROPORT_EN_ONTARIO",
        "Id": "CPY3",
        "Station": "BEARDMORE (HEALTH CENTRE) (Heli)"
      },
      "geometry": { "type": "Point", "coordinates": [-87.953055555555594, 49.608611111111102, 0.0] }
    },
    {
      "type": "Feature",
      "properties": { "Layer": "AEROPORT_EN_ONTARIO", "Id": "CNE3", "Station": "BEARSKIN LAKE" },
      "geometry": { "type": "Point", "coordinates": [-91.027222222222207, 53.965555555555603, 0.0] }
    },
    {
      "type": "Feature",
      "properties": { "Layer": "AEROPORT_EN_ONTARIO", "Id": "CBV2", "Station": "BEAVERTON" },
      "geometry": { "type": "Point", "coordinates": [-79.100277777777805, 44.4475, 0.0] }
    },
    {
      "type": "Feature",
      "properties": { "Layer": "AEROPORT_EN_ONTARIO", "Id": "CBN7", "Station": "BEAVERTON NORTH" },
      "geometry": { "type": "Point", "coordinates": [-79.126111111111101, 44.4594444444445, 0.0] }
    },
    {
      "type": "Feature",
      "properties": { "Layer": "AEROPORT_EN_ONTARIO", "Id": "CNU4", "Station": "BELLEVILLE" },
      "geometry": { "type": "Point", "coordinates": [-77.309444444444395, 44.192222222222199, 0.0] }
    },
    {
      "type": "Feature",
      "properties": {
        "Layer": "AEROPORT_EN_ONTARIO",
        "Id": "CBF2",
        "Station": "BELWOOD (BAIRD FIELD)"
      },
      "geometry": { "type": "Point", "coordinates": [-80.311944444444407, 43.808333333333302, 0.0] }
    },
    {
      "type": "Feature",
      "properties": {
        "Layer": "AEROPORT_EN_ONTARIO",
        "Id": "CEF2",
        "Station": "BELWOOD (ELLEN FIELD)"
      },
      "geometry": { "type": "Point", "coordinates": [-80.3691666666667, 43.8375, 0.0] }
    },
    {
      "type": "Feature",
      "properties": {
        "Layer": "AEROPORT_EN_ONTARIO",
        "Id": "CBW6",
        "Station": "BELWOOD (WRIGHT FIELD)"
      },
      "geometry": { "type": "Point", "coordinates": [-80.4025, 43.793888888888901, 0.0] }
    },
    {
      "type": "Feature",
      "properties": { "Layer": "AEROPORT_EN_ONTARIO", "Id": "CYTL", "Station": "BIG TROUT LAKE" },
      "geometry": { "type": "Point", "coordinates": [-89.8969444444445, 53.817777777777799, 0.0] }
    },
    {
      "type": "Feature",
      "properties": { "Layer": "AEROPORT_EN_ONTARIO", "Id": "CNB2", "Station": "BOLTON (Heli)" },
      "geometry": { "type": "Point", "coordinates": [-79.6955555555556, 43.850555555555601, 0.0] }
    },
    {
      "type": "Feature",
      "properties": { "Layer": "AEROPORT_EN_ONTARIO", "Id": "CYBN", "Station": "BORDEN (Heli)" },
      "geometry": { "type": "Point", "coordinates": [-79.9125, 44.271666666666697, 0.0] }
    },
    {
      "type": "Feature",
      "properties": {
        "Layer": "AEROPORT_EN_ONTARIO",
        "Id": "CPL7",
        "Station": "BOWMANVILLE (MEM HOSP) (Heli)"
      },
      "geometry": { "type": "Point", "coordinates": [-78.6805555555556, 43.908055555555599, 0.0] }
    },
    {
      "type": "Feature",
      "properties": {
        "Layer": "AEROPORT_EN_ONTARIO",
        "Id": "CPL2",
        "Station": "BRACEBRIDGE (SOUTH MUSKOKA MEM HOSP) (Heli)"
      },
      "geometry": { "type": "Point", "coordinates": [-79.316666666666706, 45.05, 0.0] }
    },
    {
      "type": "Feature",
      "properties": { "Layer": "AEROPORT_EN_ONTARIO", "Id": "CPM7", "Station": "BRADFORD" },
      "geometry": { "type": "Point", "coordinates": [-79.628888888888895, 44.136111111111099, 0.0] }
    },
    {
      "type": "Feature",
      "properties": { "Layer": "AEROPORT_EN_ONTARIO", "Id": "CNC3", "Station": "BRAMPTON" },
      "geometry": { "type": "Point", "coordinates": [-79.875, 43.760277777777802, 0.0] }
    },
    {
      "type": "Feature",
      "properties": {
        "Layer": "AEROPORT_EN_ONTARIO",
        "Id": "CPC4",
        "Station": "BRAMPTON (NATIONAL \"D\") (Heli)"
      },
      "geometry": { "type": "Point", "coordinates": [-79.700833333333307, 43.8333333333333, 0.0] }
    },
    {
      "type": "Feature",
      "properties": {
        "Layer": "AEROPORT_EN_ONTARIO",
        "Id": "CPM2",
        "Station": "BRAMPTON (NATIONAL \"P\") (Heli)"
      },
      "geometry": { "type": "Point", "coordinates": [-79.699722222222206, 43.8130555555556, 0.0] }
    },
    {
      "type": "Feature",
      "properties": { "Layer": "AEROPORT_EN_ONTARIO", "Id": "CYFD", "Station": "BRANTFORD" },
      "geometry": { "type": "Point", "coordinates": [-80.3425, 43.1313888888889, 0.0] }
    },
    {
      "type": "Feature",
      "properties": {
        "Layer": "AEROPORT_EN_ONTARIO",
        "Id": "CNL3",
        "Station": "BROCKVILLE-THOUSAND ISLANDS REGIONAL TACKABERRY"
      },
      "geometry": { "type": "Point", "coordinates": [-75.750277777777796, 44.639444444444401, 0.0] }
    },
    {
      "type": "Feature",
      "properties": {
        "Layer": "AEROPORT_EN_ONTARIO",
        "Id": "CPD4",
        "Station": "BRUSSELS (ARMSTRONG FIELD)"
      },
      "geometry": { "type": "Point", "coordinates": [-81.233333333333306, 43.75, 0.0] }
    },
    {
      "type": "Feature",
      "properties": {
        "Layer": "AEROPORT_EN_ONTARIO",
        "Id": "CZBA",
        "Station": "BURLINGTON EXECUTIVE"
      },
      "geometry": { "type": "Point", "coordinates": [-79.850277777777805, 43.441666666666698, 0.0] }
    },
    {
      "type": "Feature",
      "properties": {
        "Layer": "AEROPORT_EN_ONTARIO",
        "Id": "CPE4",
        "Station": "CAMBRIDGE/REID'S FIELD"
      },
      "geometry": { "type": "Point", "coordinates": [-80.232222222222205, 43.442777777777799, 0.0] }
    },
    {
      "type": "Feature",
      "properties": { "Layer": "AEROPORT_EN_ONTARIO", "Id": "CCE6", "Station": "CAMDEN EAST" },
      "geometry": { "type": "Point", "coordinates": [-76.7925, 44.3258333333333, 0.0] }
    },
    {
      "type": "Feature",
      "properties": { "Layer": "AEROPORT_EN_ONTARIO", "Id": "CNX3", "Station": "CAREY LAKE" },
      "geometry": { "type": "Point", "coordinates": [-84.033333333333303, 49.75, 0.0] }
    },
    {
      "type": "Feature",
      "properties": { "Layer": "AEROPORT_EN_ONTARIO", "Id": "CNR6", "Station": "CARLETON PLACE" },
      "geometry": { "type": "Point", "coordinates": [-76.123333333333306, 45.103888888888903, 0.0] }
    },
    {
      "type": "Feature",
      "properties": {
        "Layer": "AEROPORT_EN_ONTARIO",
        "Id": "CPN7",
        "Station": "CARLETON PLACE (DISTRICT MEM HOSP) (Heli)"
      },
      "geometry": { "type": "Point", "coordinates": [-76.137777777777799, 45.142222222222202, 0.0] }
    },
    {
      "type": "Feature",
      "properties": { "Layer": "AEROPORT_EN_ONTARIO", "Id": "CYAC", "Station": "CAT LAKE" },
      "geometry": { "type": "Point", "coordinates": [-91.824444444444396, 51.727222222222203, 0.0] }
    },
    {
      "type": "Feature",
      "properties": {
        "Layer": "AEROPORT_EN_ONTARIO",
        "Id": "CYCE",
        "Station": "CENTRALIA/JAMES T. FIELD MEMORIAL"
      },
      "geometry": { "type": "Point", "coordinates": [-81.508333333333297, 43.285555555555597, 0.0] }
    },
    {
      "type": "Feature",
      "properties": { "Layer": "AEROPORT_EN_ONTARIO", "Id": "CYLD", "Station": "CHAPLEAU" },
      "geometry": { "type": "Point", "coordinates": [-83.346944444444404, 47.820277777777797, 0.0] }
    },
    {
      "type": "Feature",
      "properties": { "Layer": "AEROPORT_EN_ONTARIO", "Id": "CNZ3", "Station": "CHATHAM-KENT" },
      "geometry": { "type": "Point", "coordinates": [-82.0825, 42.305833333333297, 0.0] }
    },
    {
      "type": "Feature",
      "properties": {
        "Layer": "AEROPORT_EN_ONTARIO",
        "Id": "CPG8",
        "Station": "CHATHAM (PUBLIC GEN HOSP) (Heli)"
      },
      "geometry": { "type": "Point", "coordinates": [-82.1933333333333, 42.403611111111097, 0.0] }
    },
    {
      "type": "Feature",
      "properties": {
        "Layer": "AEROPORT_EN_ONTARIO",
        "Id": "CPF4",
        "Station": "COBDEN/BRUCE McPHAIL MEM"
      },
      "geometry": { "type": "Point", "coordinates": [-76.8333333333333, 45.595, 0.0] }
    },
    {
      "type": "Feature",
      "properties": {
        "Layer": "AEROPORT_EN_ONTARIO",
        "Id": "CNB4",
        "Station": "COBOURG (NORTHUMBERLAND HILLS HOSP) (Heli)"
      },
      "geometry": { "type": "Point", "coordinates": [-78.2, 43.977222222222203, 0.0] }
    },
    {
      "type": "Feature",
      "properties": { "Layer": "AEROPORT_EN_ONTARIO", "Id": "CYCN", "Station": "COCHRANE" },
      "geometry": { "type": "Point", "coordinates": [-81.013611111111103, 49.105555555555597, 0.0] }
    },
    {
      "type": "Feature",
      "properties": { "Layer": "AEROPORT_EN_ONTARIO", "Id": "CNY3", "Station": "COLLINGWOOD" },
      "geometry": { "type": "Point", "coordinates": [-80.158333333333303, 44.449166666666699, 0.0] }
    },
    {
      "type": "Feature",
      "properties": {
        "Layer": "AEROPORT_EN_ONTARIO",
        "Id": "CPP2",
        "Station": "COLLINGWOOD (GEN AND MARINE HOSP) (Heli)"
      },
      "geometry": { "type": "Point", "coordinates": [-80.203333333333305, 44.499722222222204, 0.0] }
    },
    {
      "type": "Feature",
      "properties": { "Layer": "AEROPORT_EN_ONTARIO", "Id": "CCN4", "Station": "CONN" },
      "geometry": { "type": "Point", "coordinates": [-80.485555555555607, 44.0325, 0.0] }
    },
    {
      "type": "Feature",
      "properties": { "Layer": "AEROPORT_EN_ONTARIO", "Id": "CCT2", "Station": "COOKSTOWN" },
      "geometry": { "type": "Point", "coordinates": [-79.6388888888889, 44.238888888888901, 0.0] }
    },
    {
      "type": "Feature",
      "properties": {
        "Layer": "AEROPORT_EN_ONTARIO",
        "Id": "CKF8",
        "Station": "COOKSTOWN/KIRBY FIELD"
      },
      "geometry": { "type": "Point", "coordinates": [-79.725, 44.132777777777797, 0.0] }
    },
    {
      "type": "Feature",
      "properties": {
        "Layer": "AEROPORT_EN_ONTARIO",
        "Id": "CPS6",
        "Station": "CORNWALL (COMMUNITY HOSP McCONNELL SITE) (Heli)"
      },
      "geometry": { "type": "Point", "coordinates": [-74.717777777777798, 45.031111111111102, 0.0] }
    },
    {
      "type": "Feature",
      "properties": {
        "Layer": "AEROPORT_EN_ONTARIO",
        "Id": "CYCC",
        "Station": "CORNWALL REGIONAL"
      },
      "geometry": { "type": "Point", "coordinates": [-74.567777777777806, 45.092777777777798, 0.0] }
    },
    {
      "type": "Feature",
      "properties": { "Layer": "AEROPORT_EN_ONTARIO", "Id": "CRB2", "Station": "COTTAM" },
      "geometry": { "type": "Point", "coordinates": [-82.6527777777778, 42.14, 0.0] }
    },
    {
      "type": "Feature",
      "properties": {
        "Layer": "AEROPORT_EN_ONTARIO",
        "Id": "CRE3",
        "Station": "CURRIES (RAND PRIVATE AIRFIELD)"
      },
      "geometry": { "type": "Point", "coordinates": [-80.700277777777799, 43.066388888888902, 0.0] }
    },
    {
      "type": "Feature",
      "properties": { "Layer": "AEROPORT_EN_ONTARIO", "Id": "CPH2", "Station": "DEEP RIVER/ROLPH" },
      "geometry": { "type": "Point", "coordinates": [-77.533333333333303, 46.116666666666703, 0.0] }
    },
    {
      "type": "Feature",
      "properties": { "Layer": "AEROPORT_EN_ONTARIO", "Id": "CYVZ", "Station": "DEER LAKE" },
      "geometry": { "type": "Point", "coordinates": [-94.061388888888899, 52.655833333333298, 0.0] }
    },
    {
      "type": "Feature",
      "properties": { "Layer": "AEROPORT_EN_ONTARIO", "Id": "CKF9", "Station": "DE LESSEPS LAKE" },
      "geometry": { "type": "Point", "coordinates": [-90.683611111111105, 50.7175, 0.0] }
    },
    {
      "type": "Feature",
      "properties": {
        "Layer": "AEROPORT_EN_ONTARIO",
        "Id": "CKV3",
        "Station": "DRYDEN BEST WESTERN (Heli)"
      },
      "geometry": { "type": "Point", "coordinates": [-92.8333333333333, 49.783333333333303, 0.0] }
    },
    {
      "type": "Feature",
      "properties": { "Layer": "AEROPORT_EN_ONTARIO", "Id": "CYHD", "Station": "DRYDEN REGIONAL" },
      "geometry": { "type": "Point", "coordinates": [-92.7441666666667, 49.831666666666699, 0.0] }
    },
    {
      "type": "Feature",
      "properties": {
        "Layer": "AEROPORT_EN_ONTARIO",
        "Id": "CTF4",
        "Station": "DUNDALK (TRIPP FIELD)"
      },
      "geometry": { "type": "Point", "coordinates": [-80.308333333333294, 44.174444444444397, 0.0] }
    },
    {
      "type": "Feature",
      "properties": { "Layer": "AEROPORT_EN_ONTARIO", "Id": "CDG3", "Station": "DUNGANNON" },
      "geometry": { "type": "Point", "coordinates": [-81.606666666666698, 43.836388888888898, 0.0] }
    },
    {
      "type": "Feature",
      "properties": { "Layer": "AEROPORT_EN_ONTARIO", "Id": "CDU9", "Station": "DUNNVILLE" },
      "geometry": { "type": "Point", "coordinates": [-79.595833333333303, 42.872222222222199, 0.0] }
    },
    {
      "type": "Feature",
      "properties": {
        "Layer": "AEROPORT_EN_ONTARIO",
        "Id": "CPA9",
        "Station": "DUNNVILLE (HALDIMAND WAR MEM HOSP) (Heli)"
      },
      "geometry": { "type": "Point", "coordinates": [-79.628055555555505, 42.913888888888899, 0.0] }
    },
    {
      "type": "Feature",
      "properties": {
        "Layer": "AEROPORT_EN_ONTARIO",
        "Id": "CPD3",
        "Station": "DURHAM (MEM HOSP) (Heli)"
      },
      "geometry": { "type": "Point", "coordinates": [-80.8333333333333, 44.183333333333302, 0.0] }
    },
    {
      "type": "Feature",
      "properties": { "Layer": "AEROPORT_EN_ONTARIO", "Id": "CNF8", "Station": "DWIGHT" },
      "geometry": { "type": "Point", "coordinates": [-78.975, 45.313333333333297, 0.0] }
    },
    {
      "type": "Feature",
      "properties": { "Layer": "AEROPORT_EN_ONTARIO", "Id": "CKX3", "Station": "EAGLE RIVER" },
      "geometry": { "type": "Point", "coordinates": [-93.133333333333297, 49.75, 0.0] }
    },
    {
      "type": "Feature",
      "properties": {
        "Layer": "AEROPORT_EN_ONTARIO",
        "Id": "CYXR",
        "Station": "EARLTON (TIMISKAMING REGIONAL)"
      },
      "geometry": { "type": "Point", "coordinates": [-79.848888888888894, 47.695, 0.0] }
    },
    {
      "type": "Feature",
      "properties": {
        "Layer": "AEROPORT_EN_ONTARIO",
        "Id": "CEL3",
        "Station": "EAST LINTON (KERR FIELD)"
      },
      "geometry": { "type": "Point", "coordinates": [-80.944166666666703, 44.661111111111097, 0.0] }
    },
    {
      "type": "Feature",
      "properties": { "Layer": "AEROPORT_EN_ONTARIO", "Id": "CNV8", "Station": "EDENVALE" },
      "geometry": { "type": "Point", "coordinates": [-79.9652777777778, 44.438888888888897, 0.0] }
    },
    {
      "type": "Feature",
      "properties": { "Layer": "AEROPORT_EN_ONTARIO", "Id": "CPE3", "Station": "ELK LAKE" },
      "geometry": { "type": "Point", "coordinates": [-80.315833333333302, 47.7286111111111, 0.0] }
    },
    {
      "type": "Feature",
      "properties": { "Layer": "AEROPORT_EN_ONTARIO", "Id": "CYEL", "Station": "ELLIOT LAKE MUNI" },
      "geometry": { "type": "Point", "coordinates": [-82.561111111111103, 46.351666666666702, 0.0] }
    },
    {
      "type": "Feature",
      "properties": { "Layer": "AEROPORT_EN_ONTARIO", "Id": "CNT6", "Station": "ELMIRA" },
      "geometry": { "type": "Point", "coordinates": [-80.603055555555599, 43.584722222222197, 0.0] }
    },
    {
      "type": "Feature",
      "properties": { "Layer": "AEROPORT_EN_ONTARIO", "Id": "CPG4", "Station": "ELMIRA (EAST)" },
      "geometry": { "type": "Point", "coordinates": [-80.512222222222206, 43.591944444444401, 0.0] }
    },
    {
      "type": "Feature",
      "properties": { "Layer": "AEROPORT_EN_ONTARIO", "Id": "CNA4", "Station": "EMSDALE" },
      "geometry": { "type": "Point", "coordinates": [-79.35, 45.55, 0.0] }
    },
    {
      "type": "Feature",
      "properties": {
        "Layer": "AEROPORT_EN_ONTARIO",
        "Id": "CDF3",
        "Station": "ENGLEHART (DAVE'S FIELD)"
      },
      "geometry": { "type": "Point", "coordinates": [-79.811111111111103, 47.809722222222199, 0.0] }
    },
    {
      "type": "Feature",
      "properties": {
        "Layer": "AEROPORT_EN_ONTARIO",
        "Id": "CNS3",
        "Station": "ENGLEHART (DISTRICT HOSP) (Heli)"
      },
      "geometry": { "type": "Point", "coordinates": [-79.880277777777806, 47.823055555555598, 0.0] }
    },
    {
      "type": "Feature",
      "properties": { "Layer": "AEROPORT_EN_ONTARIO", "Id": "CNE9", "Station": "ESSEX" },
      "geometry": { "type": "Point", "coordinates": [-82.879444444444403, 42.095833333333303, 0.0] }
    },
    {
      "type": "Feature",
      "properties": {
        "Layer": "AEROPORT_EN_ONTARIO",
        "Id": "CEB8",
        "Station": "ESSEX/BILLING AIRSTRIP"
      },
      "geometry": { "type": "Point", "coordinates": [-82.782222222222202, 42.186666666666703, 0.0] }
    },
    {
      "type": "Feature",
      "properties": { "Layer": "AEROPORT_EN_ONTARIO", "Id": "CPD2", "Station": "ETHEL" },
      "geometry": { "type": "Point", "coordinates": [-81.176666666666705, 43.745, 0.0] }
    },
    {
      "type": "Feature",
      "properties": {
        "Layer": "AEROPORT_EN_ONTARIO",
        "Id": "CPB2",
        "Station": "FERGUS (GROVES MEM COMMUNITY HOSP) (Heli)"
      },
      "geometry": { "type": "Point", "coordinates": [-80.375555555555593, 43.7216666666667, 0.0] }
    },
    {
      "type": "Feature",
      "properties": {
        "Layer": "AEROPORT_EN_ONTARIO",
        "Id": "CPY9",
        "Station": "FEGUS (HOLYOAKE AIRFIELD)"
      },
      "geometry": { "type": "Point", "coordinates": [-80.283055555555507, 43.7286111111111, 0.0] }
    },
    {
      "type": "Feature",
      "properties": {
        "Layer": "AEROPORT_EN_ONTARIO",
        "Id": "CPG7",
        "Station": "FERGUS (JUERGENSEN FIELD)"
      },
      "geometry": { "type": "Point", "coordinates": [-80.447222222222194, 43.735, 0.0] }
    },
    {
      "type": "Feature",
      "properties": {
        "Layer": "AEROPORT_EN_ONTARIO",
        "Id": "CPR9",
        "Station": "FERGUS (ROYLAND FIELD)"
      },
      "geometry": { "type": "Point", "coordinates": [-80.385277777777802, 43.7419444444444, 0.0] }
    },
    {
      "type": "Feature",
      "properties": {
        "Layer": "AEROPORT_EN_ONTARIO",
        "Id": "CVF2",
        "Station": "FERGUS (VODAREK FIELD)"
      },
      "geometry": { "type": "Point", "coordinates": [-80.289166666666702, 43.723055555555597, 0.0] }
    },
    {
      "type": "Feature",
      "properties": { "Layer": "AEROPORT_EN_ONTARIO", "Id": "CPH9", "Station": "FORDWICH" },
      "geometry": { "type": "Point", "coordinates": [-80.995277777777801, 43.888055555555603, 0.0] }
    },
    {
      "type": "Feature",
      "properties": { "Layer": "AEROPORT_EN_ONTARIO", "Id": "CYFA", "Station": "FORT ALBANY" },
      "geometry": { "type": "Point", "coordinates": [-81.695833333333297, 52.203611111111101, 0.0] }
    },
    {
      "type": "Feature",
      "properties": { "Layer": "AEROPORT_EN_ONTARIO", "Id": "CNJ3", "Station": "FORT ERIE" },
      "geometry": { "type": "Point", "coordinates": [-78.955555555555605, 42.9166666666667, 0.0] }
    },
    {
      "type": "Feature",
      "properties": {
        "Layer": "AEROPORT_EN_ONTARIO",
        "Id": "CPG3",
        "Station": "FORT ERIE (EUROCOPTER CANADA) (Heli)"
      },
      "geometry": { "type": "Point", "coordinates": [-78.955833333333302, 42.921111111111102, 0.0] }
    },
    {
      "type": "Feature",
      "properties": {
        "Layer": "AEROPORT_EN_ONTARIO",
        "Id": "CYAG",
        "Station": "FORT FRANCES MUNI"
      },
      "geometry": { "type": "Point", "coordinates": [-93.440555555555605, 48.654444444444401, 0.0] }
    },
    {
      "type": "Feature",
      "properties": { "Layer": "AEROPORT_EN_ONTARIO", "Id": "CYFH", "Station": "FORT HOPE" },
      "geometry": { "type": "Point", "coordinates": [-87.907777777777795, 51.5619444444444, 0.0] }
    },
    {
      "type": "Feature",
      "properties": { "Layer": "AEROPORT_EN_ONTARIO", "Id": "CYER", "Station": "FORT SEVERN" },
      "geometry": { "type": "Point", "coordinates": [-87.676111111111098, 56.018888888888902, 0.0] }
    },
    {
      "type": "Feature",
      "properties": {
        "Layer": "AEROPORT_EN_ONTARIO",
        "Id": "CFR5",
        "Station": "FRENCH RIVER/ALBAN"
      },
      "geometry": { "type": "Point", "coordinates": [-80.6041666666667, 46.093333333333298, 0.0] }
    },
    {
      "type": "Feature",
      "properties": { "Layer": "AEROPORT_EN_ONTARIO", "Id": "CNN8", "Station": "GANANOQUE" },
      "geometry": { "type": "Point", "coordinates": [-76.2441666666667, 44.401944444444403, 0.0] }
    },
    {
      "type": "Feature",
      "properties": {
        "Layer": "AEROPORT_EN_ONTARIO",
        "Id": "CNZ6",
        "Station": "GEORGETOWN (GEORGETOWN & DISTRICT HOSP) (Heli)"
      },
      "geometry": { "type": "Point", "coordinates": [-79.934444444444495, 43.644444444444403, 0.0] }
    },
    {
      "type": "Feature",
      "properties": {
        "Layer": "AEROPORT_EN_ONTARIO",
        "Id": "CPJ4",
        "Station": "GERALDTON (DISTRICT HOSP) (Heli)"
      },
      "geometry": { "type": "Point", "coordinates": [-86.956944444444403, 49.723888888888901, 0.0] }
    },
    {
      "type": "Feature",
      "properties": {
        "Layer": "AEROPORT_EN_ONTARIO",
        "Id": "CYGQ",
        "Station": "GERALDTON (GREENSTONE REGIONAL)"
      },
      "geometry": { "type": "Point", "coordinates": [-86.939444444444405, 49.7783333333333, 0.0] }
    },
    {
      "type": "Feature",
      "properties": { "Layer": "AEROPORT_EN_ONTARIO", "Id": "CYGD", "Station": "GODERICH" },
      "geometry": { "type": "Point", "coordinates": [-81.710555555555601, 43.766944444444398, 0.0] }
    },
    {
      "type": "Feature",
      "properties": {
        "Layer": "AEROPORT_EN_ONTARIO",
        "Id": "CYZE",
        "Station": "GORE BAY-MANITOULIN"
      },
      "geometry": { "type": "Point", "coordinates": [-82.5683333333333, 45.881666666666703, 0.0] }
    },
    {
      "type": "Feature",
      "properties": { "Layer": "AEROPORT_EN_ONTARIO", "Id": "CPL4", "Station": "GRAND BEND" },
      "geometry": { "type": "Point", "coordinates": [-81.714166666666699, 43.286944444444401, 0.0] }
    },
    {
      "type": "Feature",
      "properties": {
        "Layer": "AEROPORT_EN_ONTARIO",
        "Id": "CGV5",
        "Station": "GRAND VALLEY (BLACK FIELD)"
      },
      "geometry": { "type": "Point", "coordinates": [-80.288611111111095, 43.86, 0.0] }
    },
    {
      "type": "Feature",
      "properties": {
        "Layer": "AEROPORT_EN_ONTARIO",
        "Id": "CGV2",
        "Station": "GRAND VALLEY/LUTHER FIELD"
      },
      "geometry": { "type": "Point", "coordinates": [-80.385277777777802, 43.976388888888899, 0.0] }
    },
    {
      "type": "Feature",
      "properties": {
        "Layer": "AEROPORT_EN_ONTARIO",
        "Id": "CGV4",
        "Station": "GRAND VALLEY (MADILL FIELD)"
      },
      "geometry": { "type": "Point", "coordinates": [-80.265833333333305, 43.861388888888897, 0.0] }
    },
    {
      "type": "Feature",
      "properties": {
        "Layer": "AEROPORT_EN_ONTARIO",
        "Id": "CGV6",
        "Station": "GRAND VALLEY (MARTIN FIELD)"
      },
      "geometry": { "type": "Point", "coordinates": [-80.286666666666704, 43.874722222222204, 0.0] }
    },
    {
      "type": "Feature",
      "properties": {
        "Layer": "AEROPORT_EN_ONTARIO",
        "Id": "CGV3",
        "Station": "GRAND VALLEY NORTH"
      },
      "geometry": { "type": "Point", "coordinates": [-80.3541666666667, 43.9625, 0.0] }
    },
    {
      "type": "Feature",
      "properties": { "Layer": "AEROPORT_EN_ONTARIO", "Id": "CNP8", "Station": "GREENBANK" },
      "geometry": { "type": "Point", "coordinates": [-79.016666666666694, 44.133333333333297, 0.0] }
    },
    {
      "type": "Feature",
      "properties": { "Layer": "AEROPORT_EN_ONTARIO", "Id": "CNZ8", "Station": "GRIMSBY AIR PARK" },
      "geometry": { "type": "Point", "coordinates": [-79.6, 43.158888888888903, 0.0] }
    },
    {
      "type": "Feature",
      "properties": { "Layer": "AEROPORT_EN_ONTARIO", "Id": "CNC4", "Station": "GUELPH" },
      "geometry": { "type": "Point", "coordinates": [-80.196111111111094, 43.563888888888897, 0.0] }
    },
    {
      "type": "Feature",
      "properties": {
        "Layer": "AEROPORT_EN_ONTARIO",
        "Id": "CPA6",
        "Station": "HAGERSVILLE (WEST HALDIMAND GEN HOSP) (Heli)"
      },
      "geometry": { "type": "Point", "coordinates": [-80.043333333333294, 42.9583333333333, 0.0] }
    },
    {
      "type": "Feature",
      "properties": {
        "Layer": "AEROPORT_EN_ONTARIO",
        "Id": "CND4",
        "Station": "HALIBURTON/STANHOPE MUNI"
      },
      "geometry": { "type": "Point", "coordinates": [-78.64, 45.110833333333296, 0.0] }
    },
    {
      "type": "Feature",
      "properties": {
        "Layer": "AEROPORT_EN_ONTARIO",
        "Id": "CNF2",
        "Station": "HALIBURTON (HOSP) (Heli)"
      },
      "geometry": { "type": "Point", "coordinates": [-78.530277777777798, 45.038055555555601, 0.0] }
    },
    {
      "type": "Feature",
      "properties": { "Layer": "AEROPORT_EN_ONTARIO", "Id": "CYHM", "Station": "HAMILTON" },